{
"type": "FeatureCollection",
"features": [
{ "type": "Feature", "properties": { "ID": "10213120", "METLNKID": "", "FEATTYPE": "POINT", "SECCLASS": "UNCLASSIFIED", "NAME": "GATES COUNTY EMERGENCY MANAGEMENT", "onemap_pro": "", "PHONE": "", "ADDRESS": "202 COURT ST", "ADDRESS2": "", "CITY": "GATESVILLE", "STATE": "NC", "ZIP": "27938", "ZIPP4": "", "COUNTY": "GATES", "FIPS": "37073", "DIRECTIONS": "", "EMERGTITLE": "", "EMERGPHONE": "", "EMERGEXT": "", "CONTDATE": "0000\/00\/00", "CONTHOW": "", "GEODATE": "2007\/03\/19", "GEOHOW": "AUTO", "NAICSCODE": "922190", "NAICSDESCR": "EMERGENCY PLANNING AND MANAGEMENT OFFICES, GOVERNMENT", "GEOLINKID": "90783516", "SOURCE": "NCGIS", "X": -76.753739, "Y": 36.403156, "ST_VENDOR": "NAVTEQ", "ST_VERSION": "2006Q4", "GEOPREC": "BLOCKFACE", "PHONELOC": "", "QC_QA": "", "EOC_ID": "96" }, "geometry": { "type": "Point", "coordinates": [ 811094.322934, 296616.297328 ] } }
,
{ "type": "Feature", "properties": { "ID": "10213025", "METLNKID": "", "FEATTYPE": "POINT", "SECCLASS": "UNCLASSIFIED", "NAME": "CUMBERLAND COUNTY EMERGENCY MANAGEMENT", "onemap_pro": "", "PHONE": "", "ADDRESS": "131 DICK ST", "ADDRESS2": "", "CITY": "FAYETTEVILLE", "STATE": "NC", "ZIP": "28301", "ZIPP4": "5750", "COUNTY": "CUMBERLAND", "FIPS": "37051", "DIRECTIONS": "", "EMERGTITLE": "", "EMERGPHONE": "", "EMERGEXT": "", "CONTDATE": "0000\/00\/00", "CONTHOW": "", "GEODATE": "2007\/03\/19", "GEOHOW": "AUTO", "NAICSCODE": "922190", "NAICSDESCR": "EMERGENCY PLANNING AND MANAGEMENT OFFICES, GOVERNMENT", "GEOLINKID": "125370213", "SOURCE": "NCGIS", "X": -78.876855, "Y": 35.050829, "ST_VENDOR": "NAVTEQ", "ST_VERSION": "2006Q4", "GEOPREC": "BLOCKFACE", "PHONELOC": "", "QC_QA": "", "EOC_ID": "1" }, "geometry": { "type": "Point", "coordinates": [ 620834.618949, 144307.927779 ] } }
,
{ "type": "Feature", "properties": { "ID": "10213026", "METLNKID": "", "FEATTYPE": "POINT", "SECCLASS": "UNCLASSIFIED", "NAME": "BUNCOMBE COUNTY EMERGENCY MANAGEMENT", "onemap_pro": "", "PHONE": "", "ADDRESS": "35 WOODFIN ST", "ADDRESS2": "", "CITY": "ASHEVILLE", "STATE": "NC", "ZIP": "28801", "ZIPP4": "3020", "COUNTY": "BUNCOMBE", "FIPS": "37021", "DIRECTIONS": "", "EMERGTITLE": "", "EMERGPHONE": "", "EMERGEXT": "", "CONTDATE": "0000\/00\/00", "CONTHOW": "", "GEODATE": "2007\/03\/19", "GEOHOW": "AUTO", "NAICSCODE": "922190", "NAICSDESCR": "EMERGENCY PLANNING AND MANAGEMENT OFFICES, GOVERNMENT", "GEOLINKID": "102573581", "SOURCE": "NCGIS", "X": -82.551342, "Y": 35.598253, "ST_VENDOR": "NAVTEQ", "ST_VERSION": "2006Q4", "GEOPREC": "BLOCKFACE", "PHONELOC": "", "QC_QA": "", "EOC_ID": "2" }, "geometry": { "type": "Point", "coordinates": [ 287886.769423, 210783.576865 ] } }
,
{ "type": "Feature", "properties": { "ID": "10213027", "METLNKID": "", "FEATTYPE": "POINT", "SECCLASS": "UNCLASSIFIED", "NAME": "ALEXANDER COUNTY EMERGENCY MANAGEMENT", "onemap_pro": "", "PHONE": "", "ADDRESS": "255 LILEDOUN RD", "ADDRESS2": "", "CITY": "TAYLORSVILLE", "STATE": "NC", "ZIP": "28681", "ZIPP4": "2497", "COUNTY": "ALEXANDER", "FIPS": "37003", "DIRECTIONS": "", "EMERGTITLE": "", "EMERGPHONE": "", "EMERGEXT": "", "CONTDATE": "0000\/00\/00", "CONTHOW": "", "GEODATE": "2007\/03\/19", "GEOHOW": "AUTO", "NAICSCODE": "922190", "NAICSDESCR": "EMERGENCY PLANNING AND MANAGEMENT OFFICES, GOVERNMENT", "GEOLINKID": "125443179", "SOURCE": "NCGIS", "X": -81.185454, "Y": 35.916179, "ST_VENDOR": "NAVTEQ", "ST_VERSION": "2006Q4", "GEOPREC": "BLOCKFACE", "PHONELOC": "", "QC_QA": "", "EOC_ID": "3" }, "geometry": { "type": "Point", "coordinates": [ 412372.163971, 242471.705406 ] } }
,
{ "type": "Feature", "properties": { "ID": "10213029", "METLNKID": "", "FEATTYPE": "POINT", "SECCLASS": "UNCLASSIFIED", "NAME": "BEAUFORT COUNTY EMERGENCY MANAGEMENT", "onemap_pro": "", "PHONE": "", "ADDRESS": "112 W SECOND ST", "ADDRESS2": "", "CITY": "WASHINGTON", "STATE": "NC", "ZIP": "27889", "ZIPP4": "4940", "COUNTY": "BEAUFORT", "FIPS": "37013", "DIRECTIONS": "", "EMERGTITLE": "", "EMERGPHONE": "", "EMERGEXT": "", "CONTDATE": "0000\/00\/00", "CONTHOW": "", "GEODATE": "2007\/03\/19", "GEOHOW": "AUTO", "NAICSCODE": "922190", "NAICSDESCR": "EMERGENCY PLANNING AND MANAGEMENT OFFICES, GOVERNMENT", "GEOLINKID": "102573788", "SOURCE": "NCGIS", "X": -77.054543, "Y": 35.543687, "ST_VENDOR": "NAVTEQ", "ST_VERSION": "2006Q4", "GEOPREC": "BLOCKFACE", "PHONELOC": "", "QC_QA": "", "EOC_ID": "5" }, "geometry": { "type": "Point", "coordinates": [ 785984.208607, 200703.267607 ] } }
,
{ "type": "Feature", "properties": { "ID": "10213030", "METLNKID": "", "FEATTYPE": "POINT", "SECCLASS": "UNCLASSIFIED", "NAME": "BERTIE COUNTY EMERGENCY MANAGEMENT", "onemap_pro": "", "PHONE": "", "ADDRESS": "106 DUNDEE ST", "ADDRESS2": "", "CITY": "WINDSOR", "STATE": "NC", "ZIP": "27983", "ZIPP4": "6758", "COUNTY": "BERTIE", "FIPS": "37015", "DIRECTIONS": "", "EMERGTITLE": "", "EMERGPHONE": "", "EMERGEXT": "", "CONTDATE": "0000\/00\/00", "CONTHOW": "", "GEODATE": "2007\/03\/19", "GEOHOW": "AUTO", "NAICSCODE": "922190", "NAICSDESCR": "EMERGENCY PLANNING AND MANAGEMENT OFFICES, GOVERNMENT", "GEOLINKID": "90923630", "SOURCE": "NCGIS", "X": -76.944502, "Y": 35.998080, "ST_VENDOR": "NAVTEQ", "ST_VERSION": "2006Q4", "GEOPREC": "BLOCKFACE", "PHONELOC": "", "QC_QA": "", "EOC_ID": "6" }, "geometry": { "type": "Point", "coordinates": [ 794915.872487, 251306.298182 ] } }
,
{ "type": "Feature", "properties": { "ID": "10213031", "METLNKID": "", "FEATTYPE": "POINT", "SECCLASS": "UNCLASSIFIED", "NAME": "BRUNSWICK COUNTY EMERGENCY MANAGEMENT", "onemap_pro": "", "PHONE": "", "ADDRESS": "45 COURTHOUSE DR", "ADDRESS2": "", "CITY": "BOLIVIA", "STATE": "NC", "ZIP": "28422", "ZIPP4": "7582", "COUNTY": "BRUNSWICK", "FIPS": "37019", "DIRECTIONS": "", "EMERGTITLE": "", "EMERGPHONE": "", "EMERGEXT": "", "CONTDATE": "0000\/00\/00", "CONTHOW": "", "GEODATE": "2007\/03\/19", "GEOHOW": "AUTO", "NAICSCODE": "922190", "NAICSDESCR": "EMERGENCY PLANNING AND MANAGEMENT OFFICES, GOVERNMENT", "GEOLINKID": "118994168", "SOURCE": "NCGIS", "X": -78.163765, "Y": 34.057582, "ST_VENDOR": "NAVTEQ", "ST_VERSION": "2006Q4", "GEOPREC": "BLOCKFACE", "PHONELOC": "", "QC_QA": "", "EOC_ID": "7" }, "geometry": { "type": "Point", "coordinates": [ 686810.345090, 34447.405692 ] } }
,
{ "type": "Feature", "properties": { "ID": "10213034", "METLNKID": "", "FEATTYPE": "POINT", "SECCLASS": "UNCLASSIFIED", "NAME": "MECKLENBURG EMERGENCY MANAGEMENT", "onemap_pro": "", "PHONE": "", "ADDRESS": "600 EAST FOURTH ST", "ADDRESS2": "", "CITY": "CHARLOTTE", "STATE": "NC", "ZIP": "28202", "ZIPP4": "2816", "COUNTY": "MECKLENBURG", "FIPS": "37119", "DIRECTIONS": "", "EMERGTITLE": "", "EMERGPHONE": "", "EMERGEXT": "", "CONTDATE": "0000\/00\/00", "CONTHOW": "", "GEODATE": "2007\/03\/19", "GEOHOW": "AUTO", "NAICSCODE": "922190", "NAICSDESCR": "EMERGENCY PLANNING AND MANAGEMENT OFFICES, GOVERNMENT", "GEOLINKID": "28228532", "SOURCE": "NCGIS", "X": -80.839179, "Y": 35.221670, "ST_VENDOR": "NAVTEQ", "ST_VERSION": "2006Q4", "GEOPREC": "BLOCKFACE", "PHONELOC": "", "QC_QA": "", "EOC_ID": "10" }, "geometry": { "type": "Point", "coordinates": [ 442190.826911, 164803.095286 ] } }
,
{ "type": "Feature", "properties": { "ID": "10213035", "METLNKID": "", "FEATTYPE": "POINT", "SECCLASS": "UNCLASSIFIED", "NAME": "CHATHAM COUNTY EMERGENCY MANAGEMENT", "onemap_pro": "", "PHONE": "", "ADDRESS": "297 WEST ST", "ADDRESS2": "", "CITY": "PITTSBORO", "STATE": "NC", "ZIP": "27312", "ZIPP4": "9471", "COUNTY": "CHATHAM", "FIPS": "37037", "DIRECTIONS": "", "EMERGTITLE": "", "EMERGPHONE": "", "EMERGEXT": "", "CONTDATE": "0000\/00\/00", "CONTHOW": "", "GEODATE": "2007\/03\/19", "GEOHOW": "AUTO", "NAICSCODE": "922190", "NAICSDESCR": "EMERGENCY PLANNING AND MANAGEMENT OFFICES, GOVERNMENT", "GEOLINKID": "102087818", "SOURCE": "NCGIS", "X": -79.181869, "Y": 35.720171, "ST_VENDOR": "NAVTEQ", "ST_VERSION": "2006Q4", "GEOPREC": "BLOCKFACE", "PHONELOC": "", "QC_QA": "", "EOC_ID": "11" }, "geometry": { "type": "Point", "coordinates": [ 593147.072043, 218569.153320 ] } }
,
{ "type": "Feature", "properties": { "ID": "10213036", "METLNKID": "", "FEATTYPE": "POINT", "SECCLASS": "UNCLASSIFIED", "NAME": "CHEROKEE COUNTY EMERGENCY MANAGEMENT", "onemap_pro": "", "PHONE": "", "ADDRESS": "116 PEACHTREE ST", "ADDRESS2": "", "CITY": "MURPHY", "STATE": "NC", "ZIP": "28906", "ZIPP4": "2910", "COUNTY": "CHEROKEE", "FIPS": "37039", "DIRECTIONS": "", "EMERGTITLE": "", "EMERGPHONE": "", "EMERGEXT": "", "CONTDATE": "0000\/00\/00", "CONTHOW": "", "GEODATE": "2007\/03\/19", "GEOHOW": "AUTO", "NAICSCODE": "922190", "NAICSDESCR": "EMERGENCY PLANNING AND MANAGEMENT OFFICES, GOVERNMENT", "GEOLINKID": "102110969", "SOURCE": "NCGIS", "X": -84.031338, "Y": 35.084363, "ST_VENDOR": "NAVTEQ", "ST_VERSION": "2006Q4", "GEOPREC": "BLOCKFACE", "PHONELOC": "", "QC_QA": "", "EOC_ID": "12" }, "geometry": { "type": "Point", "coordinates": [ 151024.428175, 159644.404465 ] } }
,
{ "type": "Feature", "properties": { "ID": "10213037", "METLNKID": "", "FEATTYPE": "POINT", "SECCLASS": "UNCLASSIFIED", "NAME": "CLAY COUNTY EMERGENCY MANAGEMENT", "onemap_pro": "", "PHONE": "", "ADDRESS": "33 MAIN ST", "ADDRESS2": "", "CITY": "HAYESVILLE", "STATE": "NC", "ZIP": "28904", "ZIPP4": "5808", "COUNTY": "CLAY", "FIPS": "37043", "DIRECTIONS": "", "EMERGTITLE": "", "EMERGPHONE": "", "EMERGEXT": "", "CONTDATE": "0000\/00\/00", "CONTHOW": "", "GEODATE": "2007\/03\/19", "GEOHOW": "AUTO", "NAICSCODE": "922190", "NAICSDESCR": "EMERGENCY PLANNING AND MANAGEMENT OFFICES, GOVERNMENT", "GEOLINKID": "102696325", "SOURCE": "NCGIS", "X": -83.818517, "Y": 35.046085, "ST_VENDOR": "NAVTEQ", "ST_VERSION": "2006Q4", "GEOPREC": "BLOCKFACE", "PHONELOC": "", "QC_QA": "", "EOC_ID": "13" }, "geometry": { "type": "Point", "coordinates": [ 170200.208545, 154441.028332 ] } }
,
{ "type": "Feature", "properties": { "ID": "10213038", "METLNKID": "", "FEATTYPE": "POINT", "SECCLASS": "UNCLASSIFIED", "NAME": "CLEVELAND COUNTY EMERGENCY MANAGEMENT", "onemap_pro": "", "PHONE": "", "ADDRESS": "100 JUSTICE PL", "ADDRESS2": "", "CITY": "SHELBY", "STATE": "NC", "ZIP": "28150", "ZIPP4": "4674", "COUNTY": "CLEVELAND", "FIPS": "37045", "DIRECTIONS": "", "EMERGTITLE": "", "EMERGPHONE": "", "EMERGEXT": "", "CONTDATE": "0000\/00\/00", "CONTHOW": "", "GEODATE": "2007\/03\/19", "GEOHOW": "AUTO", "NAICSCODE": "922190", "NAICSDESCR": "EMERGENCY PLANNING AND MANAGEMENT OFFICES, GOVERNMENT", "GEOLINKID": "125451072", "SOURCE": "NCGIS", "X": -81.536011, "Y": 35.290475, "ST_VENDOR": "NAVTEQ", "ST_VERSION": "2006Q4", "GEOPREC": "BLOCKFACE", "PHONELOC": "", "QC_QA": "", "EOC_ID": "14" }, "geometry": { "type": "Point", "coordinates": [ 378968.958308, 173831.004926 ] } }
,
{ "type": "Feature", "properties": { "ID": "10213039", "METLNKID": "", "FEATTYPE": "POINT", "SECCLASS": "UNCLASSIFIED", "NAME": "COLUMBUS COUNTY EMERGENCY MANAGEMENT", "onemap_pro": "", "PHONE": "", "ADDRESS": "608 N THOMPSON ST", "ADDRESS2": "", "CITY": "WHITEVILLE", "STATE": "NC", "ZIP": "28472", "ZIPP4": "3642", "COUNTY": "COLUMBUS", "FIPS": "37047", "DIRECTIONS": "", "EMERGTITLE": "", "EMERGPHONE": "", "EMERGEXT": "", "CONTDATE": "0000\/00\/00", "CONTHOW": "", "GEODATE": "2007\/03\/19", "GEOHOW": "AUTO", "NAICSCODE": "922190", "NAICSDESCR": "EMERGENCY PLANNING AND MANAGEMENT OFFICES, GOVERNMENT", "GEOLINKID": "102761993", "SOURCE": "NCGIS", "X": -78.698143, "Y": 34.337210, "ST_VENDOR": "NAVTEQ", "ST_VERSION": "2006Q4", "GEOPREC": "BLOCKFACE", "PHONELOC": "", "QC_QA": "", "EOC_ID": "15" }, "geometry": { "type": "Point", "coordinates": [ 637377.492564, 65183.806105 ] } }
,
{ "type": "Feature", "properties": { "ID": "10213040", "METLNKID": "", "FEATTYPE": "POINT", "SECCLASS": "UNCLASSIFIED", "NAME": "CRAVEN COUNTY EMERGENCY MANAGEMENT", "onemap_pro": "", "PHONE": "", "ADDRESS": "406 CRAVEN ST", "ADDRESS2": "", "CITY": "NEW BERN", "STATE": "NC", "ZIP": "28560", "ZIPP4": "4911", "COUNTY": "CRAVEN", "FIPS": "37049", "DIRECTIONS": "", "EMERGTITLE": "", "EMERGPHONE": "", "EMERGEXT": "", "CONTDATE": "0000\/00\/00", "CONTHOW": "", "GEODATE": "2007\/03\/19", "GEOHOW": "AUTO", "NAICSCODE": "922190", "NAICSDESCR": "EMERGENCY PLANNING AND MANAGEMENT OFFICES, GOVERNMENT", "GEOLINKID": "102677676", "SOURCE": "NCGIS", "X": -77.037590, "Y": 35.108312, "ST_VENDOR": "NAVTEQ", "ST_VERSION": "2006Q4", "GEOPREC": "BLOCKFACE", "PHONELOC": "", "QC_QA": "", "EOC_ID": "16" }, "geometry": { "type": "Point", "coordinates": [ 788475.791073, 152445.549290 ] } }
,
{ "type": "Feature", "properties": { "ID": "10213041", "METLNKID": "", "FEATTYPE": "POINT", "SECCLASS": "UNCLASSIFIED", "NAME": "DARE COUNTY EMERGENCY MANAGEMENT", "onemap_pro": "", "PHONE": "", "ADDRESS": "1044 DRIFTWOOD DR", "ADDRESS2": "", "CITY": "MANTEO", "STATE": "NC", "ZIP": "27954", "ZIPP4": "9349", "COUNTY": "DARE", "FIPS": "37055", "DIRECTIONS": "", "EMERGTITLE": "", "EMERGPHONE": "", "EMERGEXT": "", "CONTDATE": "0000\/00\/00", "CONTHOW": "", "GEODATE": "2007\/03\/19", "GEOHOW": "AUTO", "NAICSCODE": "922190", "NAICSDESCR": "EMERGENCY PLANNING AND MANAGEMENT OFFICES, GOVERNMENT", "GEOLINKID": "90926019", "SOURCE": "NCGIS", "X": -75.686639, "Y": 35.916677, "ST_VENDOR": "NAVTEQ", "ST_VERSION": "2006Q4", "GEOPREC": "BLOCKFACE", "PHONELOC": "", "QC_QA": "", "EOC_ID": "17" }, "geometry": { "type": "Point", "coordinates": [ 908586.495825, 245345.950529 ] } }
,
{ "type": "Feature", "properties": { "ID": "10213042", "METLNKID": "", "FEATTYPE": "POINT", "SECCLASS": "UNCLASSIFIED", "NAME": "DAVIDSON COUNTY EMERGENCY MANAGEMENT", "onemap_pro": "", "PHONE": "", "ADDRESS": "301 E CENTER ST", "ADDRESS2": "", "CITY": "LEXINGTON", "STATE": "NC", "ZIP": "27292", "ZIPP4": "4107", "COUNTY": "DAVIDSON", "FIPS": "37057", "DIRECTIONS": "", "EMERGTITLE": "", "EMERGPHONE": "", "EMERGEXT": "", "CONTDATE": "0000\/00\/00", "CONTHOW": "", "GEODATE": "2007\/03\/19", "GEOHOW": "AUTO", "NAICSCODE": "922190", "NAICSDESCR": "EMERGENCY PLANNING AND MANAGEMENT OFFICES, GOVERNMENT", "GEOLINKID": "102516740", "SOURCE": "NCGIS", "X": -80.249517, "Y": 35.820347, "ST_VENDOR": "NAVTEQ", "ST_VERSION": "2006Q4", "GEOPREC": "BLOCKFACE", "PHONELOC": "", "QC_QA": "", "EOC_ID": "18" }, "geometry": { "type": "Point", "coordinates": [ 496696.999377, 230378.693427 ] } }
,
{ "type": "Feature", "properties": { "ID": "10213043", "METLNKID": "", "FEATTYPE": "POINT", "SECCLASS": "UNCLASSIFIED", "NAME": "DAVIE COUNTY EMERGENCY MANAGEMENT", "onemap_pro": "", "PHONE": "", "ADDRESS": "250 MERONEY ST", "ADDRESS2": "", "CITY": "MOCKSVILLE", "STATE": "NC", "ZIP": "27028", "ZIPP4": "2012", "COUNTY": "DAVIE", "FIPS": "37059", "DIRECTIONS": "", "EMERGTITLE": "", "EMERGPHONE": "", "EMERGEXT": "", "CONTDATE": "0000\/00\/00", "CONTHOW": "", "GEODATE": "2007\/03\/19", "GEOHOW": "AUTO", "NAICSCODE": "922190", "NAICSDESCR": "EMERGENCY PLANNING AND MANAGEMENT OFFICES, GOVERNMENT", "GEOLINKID": "125444876", "SOURCE": "NCGIS", "X": -80.571483, "Y": 35.900704, "ST_VENDOR": "NAVTEQ", "ST_VERSION": "2006Q4", "GEOPREC": "BLOCKFACE", "PHONELOC": "", "QC_QA": "", "EOC_ID": "19" }, "geometry": { "type": "Point", "coordinates": [ 467748.029878, 239706.393403 ] } }
,
{ "type": "Feature", "properties": { "ID": "10213044", "METLNKID": "", "FEATTYPE": "POINT", "SECCLASS": "UNCLASSIFIED", "NAME": "EDGECOMBE COUNTY EMERGENCY MANAGEMENT", "onemap_pro": "", "PHONE": "", "ADDRESS": "201 ST ANDREW ST", "ADDRESS2": "", "CITY": "TARBORO", "STATE": "NC", "ZIP": "27886", "ZIPP4": "5100", "COUNTY": "EDGECOMBE", "FIPS": "37065", "DIRECTIONS": "", "EMERGTITLE": "", "EMERGPHONE": "", "EMERGEXT": "", "CONTDATE": "0000\/00\/00", "CONTHOW": "", "GEODATE": "2007\/03\/19", "GEOHOW": "AUTO", "NAICSCODE": "922190", "NAICSDESCR": "EMERGENCY PLANNING AND MANAGEMENT OFFICES, GOVERNMENT", "GEOLINKID": "102496110", "SOURCE": "NCGIS", "X": -77.532804, "Y": 35.897317, "ST_VENDOR": "NAVTEQ", "ST_VERSION": "2006Q4", "GEOPREC": "BLOCKFACE", "PHONELOC": "", "QC_QA": "", "EOC_ID": "20" }, "geometry": { "type": "Point", "coordinates": [ 742046.967478, 239186.590523 ] } }
,
{ "type": "Feature", "properties": { "ID": "10213045", "METLNKID": "", "FEATTYPE": "POINT", "SECCLASS": "UNCLASSIFIED", "NAME": "FORSYTH COUNTY EMERGENCY MANAGEMENT", "onemap_pro": "", "PHONE": "", "ADDRESS": "100 N LIBERTY ST", "ADDRESS2": "", "CITY": "WINSTON-SALEM", "STATE": "NC", "ZIP": "27101", "ZIPP4": "4014", "COUNTY": "FORSYTH", "FIPS": "37067", "DIRECTIONS": "", "EMERGTITLE": "", "EMERGPHONE": "", "EMERGEXT": "", "CONTDATE": "0000\/00\/00", "CONTHOW": "", "GEODATE": "2007\/03\/19", "GEOHOW": "AUTO", "NAICSCODE": "922190", "NAICSDESCR": "EMERGENCY PLANNING AND MANAGEMENT OFFICES, GOVERNMENT", "GEOLINKID": "17055247", "SOURCE": "NCGIS", "X": -80.244685, "Y": 36.094944, "ST_VENDOR": "NAVTEQ", "ST_VERSION": "2006Q4", "GEOPREC": "BLOCKFACE", "PHONELOC": "", "QC_QA": "", "EOC_ID": "21" }, "geometry": { "type": "Point", "coordinates": [ 497515.597266, 260838.097743 ] } }
,
{ "type": "Feature", "properties": { "ID": "10213046", "METLNKID": "", "FEATTYPE": "POINT", "SECCLASS": "UNCLASSIFIED", "NAME": "GUILFORD COUNTY EMERGENCY MANAGEMENT", "onemap_pro": "", "PHONE": "", "ADDRESS": "1514 N CHURCH ST", "ADDRESS2": "", "CITY": "GREENSBORO", "STATE": "NC", "ZIP": "27405", "ZIPP4": "5624", "COUNTY": "GUILFORD", "FIPS": "37081", "DIRECTIONS": "", "EMERGTITLE": "", "EMERGPHONE": "", "EMERGEXT": "", "CONTDATE": "0000\/00\/00", "CONTHOW": "", "GEODATE": "2007\/03\/19", "GEOHOW": "AUTO", "NAICSCODE": "922190", "NAICSDESCR": "EMERGENCY PLANNING AND MANAGEMENT OFFICES, GOVERNMENT", "GEOLINKID": "17056261", "SOURCE": "NCGIS", "X": -79.782651, "Y": 36.095492, "ST_VENDOR": "NAVTEQ", "ST_VERSION": "2006Q4", "GEOPREC": "BLOCKFACE", "PHONELOC": "", "QC_QA": "", "EOC_ID": "22" }, "geometry": { "type": "Point", "coordinates": [ 539121.726969, 260474.035023 ] } }
,
{ "type": "Feature", "properties": { "ID": "10213047", "METLNKID": "", "FEATTYPE": "POINT", "SECCLASS": "UNCLASSIFIED", "NAME": "HARNETT COUNTY EMERGENCY MANAGEMENT", "onemap_pro": "", "PHONE": "", "ADDRESS": "108 E FRONT ST", "ADDRESS2": "", "CITY": "LILLINGTON", "STATE": "NC", "ZIP": "27546", "ZIPP4": "", "COUNTY": "HARNETT", "FIPS": "37085", "DIRECTIONS": "", "EMERGTITLE": "", "EMERGPHONE": "", "EMERGEXT": "", "CONTDATE": "0000\/00\/00", "CONTHOW": "", "GEODATE": "2007\/03\/19", "GEOHOW": "AUTO", "NAICSCODE": "922190", "NAICSDESCR": "EMERGENCY PLANNING AND MANAGEMENT OFFICES, GOVERNMENT", "GEOLINKID": "102620907", "SOURCE": "NCGIS", "X": -78.813081, "Y": 35.398196, "ST_VENDOR": "NAVTEQ", "ST_VERSION": "2006Q4", "GEOPREC": "BLOCKFACE", "PHONELOC": "", "QC_QA": "", "EOC_ID": "23" }, "geometry": { "type": "Point", "coordinates": [ 626579.539530, 182850.644743 ] } }
,
{ "type": "Feature", "properties": { "ID": "10213048", "METLNKID": "", "FEATTYPE": "POINT", "SECCLASS": "UNCLASSIFIED", "NAME": "HENDERSON COUNTY EMERGENCY MANAGEMENT", "onemap_pro": "", "PHONE": "", "ADDRESS": "101 E ALLEN ST", "ADDRESS2": "", "CITY": "HENDERSONVILLE", "STATE": "NC", "ZIP": "28792", "ZIPP4": "5091", "COUNTY": "HENDERSON", "FIPS": "37089", "DIRECTIONS": "", "EMERGTITLE": "", "EMERGPHONE": "", "EMERGEXT": "", "CONTDATE": "0000\/00\/00", "CONTHOW": "", "GEODATE": "2007\/03\/19", "GEOHOW": "AUTO", "NAICSCODE": "922190", "NAICSDESCR": "EMERGENCY PLANNING AND MANAGEMENT OFFICES, GOVERNMENT", "GEOLINKID": "127916377", "SOURCE": "NCGIS", "X": -82.459281, "Y": 35.313691, "ST_VENDOR": "NAVTEQ", "ST_VERSION": "2006Q4", "GEOPREC": "BLOCKFACE", "PHONELOC": "", "QC_QA": "", "EOC_ID": "24" }, "geometry": { "type": "Point", "coordinates": [ 295123.219734, 178940.185347 ] } }
,
{ "type": "Feature", "properties": { "ID": "10213049", "METLNKID": "", "FEATTYPE": "POINT", "SECCLASS": "UNCLASSIFIED", "NAME": "IREDELL COUNTY EMERGENCY MANAGEMENT", "onemap_pro": "", "PHONE": "", "ADDRESS": "201 E WATER ST", "ADDRESS2": "", "CITY": "STATESVILLE", "STATE": "NC", "ZIP": "28677", "ZIPP4": "5200", "COUNTY": "IREDELL", "FIPS": "37097", "DIRECTIONS": "", "EMERGTITLE": "", "EMERGPHONE": "", "EMERGEXT": "", "CONTDATE": "0000\/00\/00", "CONTHOW": "", "GEODATE": "2007\/03\/19", "GEOHOW": "AUTO", "NAICSCODE": "922190", "NAICSDESCR": "EMERGENCY PLANNING AND MANAGEMENT OFFICES, GOVERNMENT", "GEOLINKID": "22944775", "SOURCE": "NCGIS", "X": -80.886561, "Y": 35.787224, "ST_VENDOR": "NAVTEQ", "ST_VERSION": "2006Q4", "GEOPREC": "BLOCKFACE", "PHONELOC": "", "QC_QA": "", "EOC_ID": "25" }, "geometry": { "type": "Point", "coordinates": [ 439070.703004, 227613.635376 ] } }
,
{ "type": "Feature", "properties": { "ID": "10213050", "METLNKID": "", "FEATTYPE": "POINT", "SECCLASS": "UNCLASSIFIED", "NAME": "JACKSON COUNTY EMERGENCY MANAGEMENT", "onemap_pro": "", "PHONE": "", "ADDRESS": "401 GRINDSTAFF COVE RD", "ADDRESS2": "", "CITY": "SYLVA", "STATE": "NC", "ZIP": "28779", "ZIPP4": "3250", "COUNTY": "JACKSON", "FIPS": "37099", "DIRECTIONS": "", "EMERGTITLE": "", "EMERGPHONE": "", "EMERGEXT": "", "CONTDATE": "0000\/00\/00", "CONTHOW": "", "GEODATE": "2007\/03\/19", "GEOHOW": "AUTO", "NAICSCODE": "922190", "NAICSDESCR": "EMERGENCY PLANNING AND MANAGEMENT OFFICES, GOVERNMENT", "GEOLINKID": "22936613", "SOURCE": "NCGIS", "X": -83.222744, "Y": 35.380898, "ST_VENDOR": "NAVTEQ", "ST_VERSION": "2006Q4", "GEOPREC": "BLOCKFACE", "PHONELOC": "", "QC_QA": "", "EOC_ID": "26" }, "geometry": { "type": "Point", "coordinates": [ 226073.087189, 189074.199308 ] } }
,
{ "type": "Feature", "properties": { "ID": "10213051", "METLNKID": "", "FEATTYPE": "POINT", "SECCLASS": "UNCLASSIFIED", "NAME": "JOHNSTON COUNTY EMERGENCY MANAGEMENT", "onemap_pro": "", "PHONE": "", "ADDRESS": "210 BRIDGE ST", "ADDRESS2": "", "CITY": "SMITHFIELD", "STATE": "NC", "ZIP": "27577", "ZIPP4": "3904", "COUNTY": "JOHNSTON", "FIPS": "37101", "DIRECTIONS": "", "EMERGTITLE": "", "EMERGPHONE": "", "EMERGEXT": "", "CONTDATE": "0000\/00\/00", "CONTHOW": "", "GEODATE": "2007\/03\/19", "GEOHOW": "AUTO", "NAICSCODE": "922190", "NAICSDESCR": "EMERGENCY PLANNING AND MANAGEMENT OFFICES, GOVERNMENT", "GEOLINKID": "102592736", "SOURCE": "NCGIS", "X": -78.346470, "Y": 35.512566, "ST_VENDOR": "NAVTEQ", "ST_VERSION": "2006Q4", "GEOPREC": "BLOCKFACE", "PHONELOC": "", "QC_QA": "", "EOC_ID": "27" }, "geometry": { "type": "Point", "coordinates": [ 668878.972530, 195717.442323 ] } }
,
{ "type": "Feature", "properties": { "ID": "10213052", "METLNKID": "", "FEATTYPE": "POINT", "SECCLASS": "UNCLASSIFIED", "NAME": "MACON COUNTY EMERGENCY MANAGEMENT", "onemap_pro": "", "PHONE": "", "ADDRESS": "104 E MAIN ST", "ADDRESS2": "", "CITY": "FRANKLIN", "STATE": "NC", "ZIP": "28734", "ZIPP4": "3045", "COUNTY": "MACON", "FIPS": "37113", "DIRECTIONS": "", "EMERGTITLE": "", "EMERGPHONE": "", "EMERGEXT": "", "CONTDATE": "0000\/00\/00", "CONTHOW": "", "GEODATE": "2007\/03\/19", "GEOHOW": "AUTO", "NAICSCODE": "922190", "NAICSDESCR": "EMERGENCY PLANNING AND MANAGEMENT OFFICES, GOVERNMENT", "GEOLINKID": "102396200", "SOURCE": "NCGIS", "X": -83.378826, "Y": 35.182853, "ST_VENDOR": "NAVTEQ", "ST_VERSION": "2006Q4", "GEOPREC": "BLOCKFACE", "PHONELOC": "", "QC_QA": "", "EOC_ID": "28" }, "geometry": { "type": "Point", "coordinates": [ 210937.355463, 167740.199672 ] } }
,
{ "type": "Feature", "properties": { "ID": "10213053", "METLNKID": "", "FEATTYPE": "POINT", "SECCLASS": "UNCLASSIFIED", "NAME": "MARTIN COUNTY EMERGENCY MANAGEMENT", "onemap_pro": "", "PHONE": "", "ADDRESS": "214 E MAIN ST", "ADDRESS2": "", "CITY": "WILLIAMSTON", "STATE": "NC", "ZIP": "27892", "ZIPP4": "2483", "COUNTY": "MARTIN", "FIPS": "37117", "DIRECTIONS": "", "EMERGTITLE": "", "EMERGPHONE": "", "EMERGEXT": "", "CONTDATE": "0000\/00\/00", "CONTHOW": "", "GEODATE": "2007\/03\/19", "GEOHOW": "AUTO", "NAICSCODE": "922190", "NAICSDESCR": "EMERGENCY PLANNING AND MANAGEMENT OFFICES, GOVERNMENT", "GEOLINKID": "102421247", "SOURCE": "NCGIS", "X": -77.053444, "Y": 35.856285, "ST_VENDOR": "NAVTEQ", "ST_VERSION": "2006Q4", "GEOPREC": "BLOCKFACE", "PHONELOC": "", "QC_QA": "", "EOC_ID": "29" }, "geometry": { "type": "Point", "coordinates": [ 785403.858654, 235379.094327 ] } }
,
{ "type": "Feature", "properties": { "ID": "10213054", "METLNKID": "", "FEATTYPE": "POINT", "SECCLASS": "UNCLASSIFIED", "NAME": "MONTGOMERY COUNTY EMERGENCY MANAGEMENT", "onemap_pro": "", "PHONE": "", "ADDRESS": "102 EAST MAIN ST", "ADDRESS2": "", "CITY": "TROY", "STATE": "NC", "ZIP": "27371", "ZIPP4": "3011", "COUNTY": "MONTGOMERY", "FIPS": "37123", "DIRECTIONS": "", "EMERGTITLE": "", "EMERGPHONE": "", "EMERGEXT": "", "CONTDATE": "0000\/00\/00", "CONTHOW": "", "GEODATE": "2007\/03\/19", "GEOHOW": "AUTO", "NAICSCODE": "922190", "NAICSDESCR": "EMERGENCY PLANNING AND MANAGEMENT OFFICES, GOVERNMENT", "GEOLINKID": "102390197", "SOURCE": "NCGIS", "X": -79.892240, "Y": 35.358288, "ST_VENDOR": "NAVTEQ", "ST_VERSION": "2006Q4", "GEOPREC": "BLOCKFACE", "PHONELOC": "", "QC_QA": "", "EOC_ID": "30" }, "geometry": { "type": "Point", "coordinates": [ 528518.133231, 178771.854083 ] } }
,
{ "type": "Feature", "properties": { "ID": "10213056", "METLNKID": "", "FEATTYPE": "POINT", "SECCLASS": "UNCLASSIFIED", "NAME": "ONSLOW COUNTY EMERGENCY MANAGEMENT", "onemap_pro": "", "PHONE": "", "ADDRESS": "604 COLLEGE ST", "ADDRESS2": "", "CITY": "JACKSONVILLE", "STATE": "NC", "ZIP": "28540", "ZIPP4": "5309", "COUNTY": "ONSLOW", "FIPS": "37133", "DIRECTIONS": "", "EMERGTITLE": "", "EMERGPHONE": "", "EMERGEXT": "", "CONTDATE": "0000\/00\/00", "CONTHOW": "", "GEODATE": "2007\/03\/19", "GEOHOW": "AUTO", "NAICSCODE": "922190", "NAICSDESCR": "EMERGENCY PLANNING AND MANAGEMENT OFFICES, GOVERNMENT", "GEOLINKID": "102738219", "SOURCE": "NCGIS", "X": -77.425699, "Y": 34.748573, "ST_VENDOR": "NAVTEQ", "ST_VERSION": "2006Q4", "GEOPREC": "BLOCKFACE", "PHONELOC": "", "QC_QA": "", "EOC_ID": "32" }, "geometry": { "type": "Point", "coordinates": [ 753735.564993, 111915.643588 ] } }
,
{ "type": "Feature", "properties": { "ID": "10213060", "METLNKID": "", "FEATTYPE": "POINT", "SECCLASS": "UNCLASSIFIED", "NAME": "RICHMOND COUNTY EMERGENCY MANAGEMENT", "onemap_pro": "", "PHONE": "", "ADDRESS": "319 S LAWRENCE ST", "ADDRESS2": "", "CITY": "ROCKINGHAM", "STATE": "NC", "ZIP": "28379", "ZIPP4": "3761", "COUNTY": "RICHMOND", "FIPS": "37153", "DIRECTIONS": "", "EMERGTITLE": "", "EMERGPHONE": "", "EMERGEXT": "", "CONTDATE": "0000\/00\/00", "CONTHOW": "", "GEODATE": "2007\/03\/19", "GEOHOW": "AUTO", "NAICSCODE": "922190", "NAICSDESCR": "EMERGENCY PLANNING AND MANAGEMENT OFFICES, GOVERNMENT", "GEOLINKID": "102787096", "SOURCE": "NCGIS", "X": -79.771819, "Y": 34.935415, "ST_VENDOR": "NAVTEQ", "ST_VERSION": "2006Q4", "GEOPREC": "BLOCKFACE", "PHONELOC": "", "QC_QA": "", "EOC_ID": "36" }, "geometry": { "type": "Point", "coordinates": [ 539096.563193, 131772.502743 ] } }
,
{ "type": "Feature", "properties": { "ID": "10213061", "METLNKID": "", "FEATTYPE": "POINT", "SECCLASS": "UNCLASSIFIED", "NAME": "ROBESON COUNTY EMERGENCY MANAGEMENT", "onemap_pro": "", "PHONE": "", "ADDRESS": "108 W 8TH ST", "ADDRESS2": "", "CITY": "LUMBERTON", "STATE": "NC", "ZIP": "28358", "ZIPP4": "4847", "COUNTY": "ROBESON", "FIPS": "37155", "DIRECTIONS": "", "EMERGTITLE": "", "EMERGPHONE": "", "EMERGEXT": "", "CONTDATE": "0000\/00\/00", "CONTHOW": "", "GEODATE": "2007\/03\/19", "GEOHOW": "AUTO", "NAICSCODE": "922190", "NAICSDESCR": "EMERGENCY PLANNING AND MANAGEMENT OFFICES, GOVERNMENT", "GEOLINKID": "102752440", "SOURCE": "NCGIS", "X": -79.008947, "Y": 34.622290, "ST_VENDOR": "NAVTEQ", "ST_VERSION": "2006Q4", "GEOPREC": "BLOCKFACE", "PHONELOC": "", "QC_QA": "", "EOC_ID": "37" }, "geometry": { "type": "Point", "coordinates": [ 608780.770874, 96764.594870 ] } }
,
{ "type": "Feature", "properties": { "ID": "10213062", "METLNKID": "", "FEATTYPE": "POINT", "SECCLASS": "UNCLASSIFIED", "NAME": "ROWAN COUNTY EMERGENCY MANAGEMENT", "onemap_pro": "", "PHONE": "", "ADDRESS": "2727 OLD CONCORD RD", "ADDRESS2": "", "CITY": "SALISBURY", "STATE": "NC", "ZIP": "28146", "ZIPP4": "8388", "COUNTY": "ROWAN", "FIPS": "37159", "DIRECTIONS": "", "EMERGTITLE": "", "EMERGPHONE": "", "EMERGEXT": "", "CONTDATE": "0000\/00\/00", "CONTHOW": "", "GEODATE": "2007\/03\/19", "GEOHOW": "AUTO", "NAICSCODE": "922190", "NAICSDESCR": "EMERGENCY PLANNING AND MANAGEMENT OFFICES, GOVERNMENT", "GEOLINKID": "102897081", "SOURCE": "NCGIS", "X": -80.481524, "Y": 35.624501, "ST_VENDOR": "NAVTEQ", "ST_VERSION": "2006Q4", "GEOPREC": "BLOCKFACE", "PHONELOC": "", "QC_QA": "", "EOC_ID": "38" }, "geometry": { "type": "Point", "coordinates": [ 475410.462142, 208941.667103 ] } }
,
{ "type": "Feature", "properties": { "ID": "10213064", "METLNKID": "", "FEATTYPE": "POINT", "SECCLASS": "UNCLASSIFIED", "NAME": "SAMPSON COUNTY EMERGENCY MANAGEMENT", "onemap_pro": "", "PHONE": "", "ADDRESS": "107 UNDERWOOD ST", "ADDRESS2": "", "CITY": "CLINTON", "STATE": "NC", "ZIP": "28328", "ZIPP4": "2241", "COUNTY": "SAMPSON", "FIPS": "37163", "DIRECTIONS": "", "EMERGTITLE": "", "EMERGPHONE": "", "EMERGEXT": "", "CONTDATE": "0000\/00\/00", "CONTHOW": "", "GEODATE": "2007\/03\/19", "GEOHOW": "AUTO", "NAICSCODE": "922190", "NAICSDESCR": "EMERGENCY PLANNING AND MANAGEMENT OFFICES, GOVERNMENT", "GEOLINKID": "109849822", "SOURCE": "NCGIS", "X": -78.313995, "Y": 35.007442, "ST_VENDOR": "NAVTEQ", "ST_VERSION": "2006Q4", "GEOPREC": "BLOCKFACE", "PHONELOC": "", "QC_QA": "", "EOC_ID": "40" }, "geometry": { "type": "Point", "coordinates": [ 672211.820149, 139704.494814 ] } }
,
{ "type": "Feature", "properties": { "ID": "10213065", "METLNKID": "", "FEATTYPE": "POINT", "SECCLASS": "UNCLASSIFIED", "NAME": "STANLY COUNTY EMERGENCY MANAGEMENT", "onemap_pro": "", "PHONE": "", "ADDRESS": "201 S SECOND ST", "ADDRESS2": "", "CITY": "ALBEMARLE", "STATE": "NC", "ZIP": "28001", "ZIPP4": "5741", "COUNTY": "STANLY", "FIPS": "37167", "DIRECTIONS": "", "EMERGTITLE": "", "EMERGPHONE": "", "EMERGEXT": "", "CONTDATE": "0000\/00\/00", "CONTHOW": "", "GEODATE": "2007\/03\/19", "GEOHOW": "AUTO", "NAICSCODE": "922190", "NAICSDESCR": "EMERGENCY PLANNING AND MANAGEMENT OFFICES, GOVERNMENT", "GEOLINKID": "102634912", "SOURCE": "NCGIS", "X": -80.197834, "Y": 35.349084, "ST_VENDOR": "NAVTEQ", "ST_VERSION": "2006Q4", "GEOPREC": "BLOCKFACE", "PHONELOC": "", "QC_QA": "", "EOC_ID": "41" }, "geometry": { "type": "Point", "coordinates": [ 500735.882709, 178043.302658 ] } }
,
{ "type": "Feature", "properties": { "ID": "10213066", "METLNKID": "", "FEATTYPE": "POINT", "SECCLASS": "UNCLASSIFIED", "NAME": "UNION COUNTY EMERGENCY MANAGEMENT", "onemap_pro": "", "PHONE": "", "ADDRESS": "500 NORTH MAIN ST", "ADDRESS2": "", "CITY": "MONROE", "STATE": "NC", "ZIP": "28112", "ZIPP4": "4730", "COUNTY": "UNION", "FIPS": "37179", "DIRECTIONS": "", "EMERGTITLE": "", "EMERGPHONE": "", "EMERGEXT": "", "CONTDATE": "0000\/00\/00", "CONTHOW": "", "GEODATE": "2007\/03\/19", "GEOHOW": "AUTO", "NAICSCODE": "922190", "NAICSDESCR": "EMERGENCY PLANNING AND MANAGEMENT OFFICES, GOVERNMENT", "GEOLINKID": "102714493", "SOURCE": "NCGIS", "X": -80.550029, "Y": 34.982981, "ST_VENDOR": "NAVTEQ", "ST_VERSION": "2006Q4", "GEOPREC": "BLOCKFACE", "PHONELOC": "", "QC_QA": "", "EOC_ID": "42" }, "geometry": { "type": "Point", "coordinates": [ 468094.819767, 137879.507677 ] } }
,
{ "type": "Feature", "properties": { "ID": "10213068", "METLNKID": "", "FEATTYPE": "POINT", "SECCLASS": "UNCLASSIFIED", "NAME": "WASHINGTON COUNTY EMERGENCY MANAGEMENT", "onemap_pro": "", "PHONE": "", "ADDRESS": "116 ADAMS ST", "ADDRESS2": "", "CITY": "PLYMOUTH", "STATE": "NC", "ZIP": "27962", "ZIPP4": "1308", "COUNTY": "WASHINGTON", "FIPS": "37187", "DIRECTIONS": "", "EMERGTITLE": "", "EMERGPHONE": "", "EMERGEXT": "", "CONTDATE": "0000\/00\/00", "CONTHOW": "", "GEODATE": "2007\/03\/19", "GEOHOW": "AUTO", "NAICSCODE": "922190", "NAICSDESCR": "EMERGENCY PLANNING AND MANAGEMENT OFFICES, GOVERNMENT", "GEOLINKID": "90927300", "SOURCE": "NCGIS", "X": -76.749040, "Y": 35.867514, "ST_VENDOR": "NAVTEQ", "ST_VERSION": "2006Q4", "GEOPREC": "BLOCKFACE", "PHONELOC": "", "QC_QA": "", "EOC_ID": "44" }, "geometry": { "type": "Point", "coordinates": [ 812863.368952, 237205.736249 ] } }
,
{ "type": "Feature", "properties": { "ID": "10213069", "METLNKID": "", "FEATTYPE": "POINT", "SECCLASS": "UNCLASSIFIED", "NAME": "WATAUGA COUNTY EMERGENCY MANAGEMENT", "onemap_pro": "", "PHONE": "", "ADDRESS": "330 QUEEN STREET", "ADDRESS2": "", "CITY": "BOONE", "STATE": "NC", "ZIP": "28607", "ZIPP4": "4694", "COUNTY": "WATAUGA", "FIPS": "37189", "DIRECTIONS": "", "EMERGTITLE": "", "EMERGPHONE": "", "EMERGEXT": "", "CONTDATE": "0000\/00\/00", "CONTHOW": "", "GEODATE": "2007\/03\/19", "GEOHOW": "AUTO", "NAICSCODE": "922190", "NAICSDESCR": "EMERGENCY PLANNING AND MANAGEMENT OFFICES, GOVERNMENT", "GEOLINKID": "125094686", "SOURCE": "NCGIS", "X": -81.683564, "Y": 36.219350, "ST_VENDOR": "NAVTEQ", "ST_VERSION": "2006Q4", "GEOPREC": "BLOCKFACE", "PHONELOC": "", "QC_QA": "", "EOC_ID": "45" }, "geometry": { "type": "Point", "coordinates": [ 368338.722138, 277200.825182 ] } }
,
{ "type": "Feature", "properties": { "ID": "10213070", "METLNKID": "", "FEATTYPE": "POINT", "SECCLASS": "UNCLASSIFIED", "NAME": "WILKES COUNTY EMERGENCY MANAGEMENT", "onemap_pro": "", "PHONE": "", "ADDRESS": "110 NORTH ST", "ADDRESS2": "", "CITY": "WILKESBORO", "STATE": "NC", "ZIP": "28697", "ZIPP4": "2428", "COUNTY": "WILKES", "FIPS": "37193", "DIRECTIONS": "", "EMERGTITLE": "", "EMERGPHONE": "", "EMERGEXT": "", "CONTDATE": "0000\/00\/00", "CONTHOW": "", "GEODATE": "2007\/03\/19", "GEOHOW": "AUTO", "NAICSCODE": "922190", "NAICSDESCR": "EMERGENCY PLANNING AND MANAGEMENT OFFICES, GOVERNMENT", "GEOLINKID": "102468505", "SOURCE": "NCGIS", "X": -81.152624, "Y": 36.149302, "ST_VENDOR": "NAVTEQ", "ST_VERSION": "2006Q4", "GEOPREC": "BLOCKFACE", "PHONELOC": "", "QC_QA": "", "EOC_ID": "46" }, "geometry": { "type": "Point", "coordinates": [ 415895.328134, 268267.258710 ] } }
,
{ "type": "Feature", "properties": { "ID": "10213074", "METLNKID": "", "FEATTYPE": "POINT", "SECCLASS": "UNCLASSIFIED", "NAME": "ALAMANCE COUNTY EMERGENCY MANAGEMENT", "onemap_pro": "", "PHONE": "", "ADDRESS": "124 WEST ELM ST", "ADDRESS2": "", "CITY": "GRAHAM", "STATE": "NC", "ZIP": "27253", "ZIPP4": "2802", "COUNTY": "ALAMANCE", "FIPS": "37001", "DIRECTIONS": "", "EMERGTITLE": "", "EMERGPHONE": "", "EMERGEXT": "", "CONTDATE": "0000\/00\/00", "CONTHOW": "", "GEODATE": "2007\/03\/19", "GEOHOW": "AUTO", "NAICSCODE": "922190", "NAICSDESCR": "EMERGENCY PLANNING AND MANAGEMENT OFFICES, GOVERNMENT", "GEOLINKID": "102479585", "SOURCE": "NCGIS", "X": -79.401241, "Y": 36.069025, "ST_VENDOR": "NAVTEQ", "ST_VERSION": "2006Q4", "GEOPREC": "BLOCKFACE", "PHONELOC": "", "QC_QA": "", "EOC_ID": "50" }, "geometry": { "type": "Point", "coordinates": [ 573456.406041, 257332.534092 ] } }
,
{ "type": "Feature", "properties": { "ID": "10213075", "METLNKID": "", "FEATTYPE": "POINT", "SECCLASS": "UNCLASSIFIED", "NAME": "ALLEGHANY COUNTY EMERGENCY MANAGEMENT", "onemap_pro": "", "PHONE": "", "ADDRESS": "40 COX ST", "ADDRESS2": "", "CITY": "SPARTA", "STATE": "NC", "ZIP": "28675", "ZIPP4": "9117", "COUNTY": "ALLEGHANY", "FIPS": "37005", "DIRECTIONS": "", "EMERGTITLE": "", "EMERGPHONE": "", "EMERGEXT": "", "CONTDATE": "0000\/00\/00", "CONTHOW": "", "GEODATE": "2007\/03\/19", "GEOHOW": "AUTO", "NAICSCODE": "922190", "NAICSDESCR": "EMERGENCY PLANNING AND MANAGEMENT OFFICES, GOVERNMENT", "GEOLINKID": "102432100", "SOURCE": "NCGIS", "X": -81.123176, "Y": 36.508273, "ST_VENDOR": "NAVTEQ", "ST_VERSION": "2006Q4", "GEOPREC": "BLOCKFACE", "PHONELOC": "", "QC_QA": "", "EOC_ID": "51" }, "geometry": { "type": "Point", "coordinates": [ 419396.775305, 308036.320123 ] } }
,
{ "type": "Feature", "properties": { "ID": "10213077", "METLNKID": "", "FEATTYPE": "POINT", "SECCLASS": "UNCLASSIFIED", "NAME": "HAYWOOD COUNTY EMERGENCY MANAGEMENT", "onemap_pro": "", "PHONE": "", "ADDRESS": "215 N MAIN ST", "ADDRESS2": "", "CITY": "WAYNESVILLE", "STATE": "NC", "ZIP": "28786", "ZIPP4": "3869", "COUNTY": "HAYWOOD", "FIPS": "37087", "DIRECTIONS": "", "EMERGTITLE": "", "EMERGPHONE": "", "EMERGEXT": "", "CONTDATE": "0000\/00\/00", "CONTHOW": "", "GEODATE": "2007\/03\/19", "GEOHOW": "AUTO", "NAICSCODE": "922190", "NAICSDESCR": "EMERGENCY PLANNING AND MANAGEMENT OFFICES, GOVERNMENT", "GEOLINKID": "102947925", "SOURCE": "NCGIS", "X": -82.986895, "Y": 35.492843, "ST_VENDOR": "NAVTEQ", "ST_VERSION": "2006Q4", "GEOPREC": "BLOCKFACE", "PHONELOC": "", "QC_QA": "", "EOC_ID": "53" }, "geometry": { "type": "Point", "coordinates": [ 247980.705002, 200597.023511 ] } }
,
{ "type": "Feature", "properties": { "ID": "10213078", "METLNKID": "", "FEATTYPE": "POINT", "SECCLASS": "UNCLASSIFIED", "NAME": "CURRITUCK COUNTY EMERGENCY MANAGEMENT", "onemap_pro": "", "PHONE": "", "ADDRESS": "151 COURTHOUSE RD", "ADDRESS2": "", "CITY": "CURRITUCK", "STATE": "NC", "ZIP": "27929", "ZIPP4": "9653", "COUNTY": "CURRITUCK", "FIPS": "37053", "DIRECTIONS": "", "EMERGTITLE": "", "EMERGPHONE": "", "EMERGEXT": "", "CONTDATE": "0000\/00\/00", "CONTHOW": "", "GEODATE": "2007\/03\/19", "GEOHOW": "AUTO", "NAICSCODE": "922190", "NAICSDESCR": "EMERGENCY PLANNING AND MANAGEMENT OFFICES, GOVERNMENT", "GEOLINKID": "128073925", "SOURCE": "NCGIS", "X": -76.015880, "Y": 36.449963, "ST_VENDOR": "NAVTEQ", "ST_VERSION": "2006Q4", "GEOPREC": "BLOCKFACE", "PHONELOC": "", "QC_QA": "", "EOC_ID": "54" }, "geometry": { "type": "Point", "coordinates": [ 877107.918644, 303552.041847 ] } }
,
{ "type": "Feature", "properties": { "ID": "10213079", "METLNKID": "", "FEATTYPE": "POINT", "SECCLASS": "UNCLASSIFIED", "NAME": "WARREN COUNTY EMERGENCY MANAGEMENT", "onemap_pro": "", "PHONE": "", "ADDRESS": "540 W RIDGEWAY ST", "ADDRESS2": "", "CITY": "WARRENTON", "STATE": "NC", "ZIP": "27589", "ZIPP4": "1716", "COUNTY": "WARREN", "FIPS": "37185", "DIRECTIONS": "", "EMERGTITLE": "", "EMERGPHONE": "", "EMERGEXT": "", "CONTDATE": "0000\/00\/00", "CONTHOW": "", "GEODATE": "2007\/03\/19", "GEOHOW": "AUTO", "NAICSCODE": "922190", "NAICSDESCR": "EMERGENCY PLANNING AND MANAGEMENT OFFICES, GOVERNMENT", "GEOLINKID": "102945095", "SOURCE": "NCGIS", "X": -78.162000, "Y": 36.405044, "ST_VENDOR": "NAVTEQ", "ST_VERSION": "2006Q4", "GEOPREC": "BLOCKFACE", "PHONELOC": "", "QC_QA": "", "EOC_ID": "55" }, "geometry": { "type": "Point", "coordinates": [ 684774.876801, 294863.346543 ] } }
,
{ "type": "Feature", "properties": { "ID": "10213080", "METLNKID": "", "FEATTYPE": "POINT", "SECCLASS": "UNCLASSIFIED", "NAME": "VANCE COUNTY EMERGENCY MANAGEMENT", "onemap_pro": "", "PHONE": "", "ADDRESS": "300 S GARNETT ST", "ADDRESS2": "", "CITY": "HENDERSON", "STATE": "NC", "ZIP": "27536", "ZIPP4": "4566", "COUNTY": "VANCE", "FIPS": "37181", "DIRECTIONS": "", "EMERGTITLE": "", "EMERGPHONE": "", "EMERGEXT": "", "CONTDATE": "0000\/00\/00", "CONTHOW": "", "GEODATE": "2007\/03\/19", "GEOHOW": "AUTO", "NAICSCODE": "922190", "NAICSDESCR": "EMERGENCY PLANNING AND MANAGEMENT OFFICES, GOVERNMENT", "GEOLINKID": "102355944", "SOURCE": "NCGIS", "X": -78.405151, "Y": 36.325933, "ST_VENDOR": "NAVTEQ", "ST_VERSION": "2006Q4", "GEOPREC": "BLOCKFACE", "PHONELOC": "", "QC_QA": "", "EOC_ID": "56" }, "geometry": { "type": "Point", "coordinates": [ 663015.695980, 285926.984551 ] } }
,
{ "type": "Feature", "properties": { "ID": "10213081", "METLNKID": "", "FEATTYPE": "POINT", "SECCLASS": "UNCLASSIFIED", "NAME": "BLADEN COUNTY EMERGENCY MANAGEMENT", "onemap_pro": "", "PHONE": "", "ADDRESS": "104 E BROAD ST", "ADDRESS2": "", "CITY": "ELIZABETHTOWN", "STATE": "NC", "ZIP": "28337", "ZIPP4": "8999", "COUNTY": "BLADEN", "FIPS": "37017", "DIRECTIONS": "", "EMERGTITLE": "", "EMERGPHONE": "", "EMERGEXT": "", "CONTDATE": "0000\/00\/00", "CONTHOW": "", "GEODATE": "2007\/03\/19", "GEOHOW": "AUTO", "NAICSCODE": "922190", "NAICSDESCR": "EMERGENCY PLANNING AND MANAGEMENT OFFICES, GOVERNMENT", "GEOLINKID": "102377523", "SOURCE": "NCGIS", "X": -78.605531, "Y": 34.628521, "ST_VENDOR": "NAVTEQ", "ST_VERSION": "2006Q4", "GEOPREC": "BLOCKFACE", "PHONELOC": "", "QC_QA": "", "EOC_ID": "57" }, "geometry": { "type": "Point", "coordinates": [ 645770.956380, 97527.599799 ] } }
,
{ "type": "Feature", "properties": { "ID": "10213082", "METLNKID": "", "FEATTYPE": "POINT", "SECCLASS": "UNCLASSIFIED", "NAME": "SURRY COUNTY EMERGENCY MANAGEMENT", "onemap_pro": "", "PHONE": "", "ADDRESS": "834 ROCKFORD ST", "ADDRESS2": "", "CITY": "MOUNT AIRY", "STATE": "NC", "ZIP": "27030", "ZIPP4": "5322", "COUNTY": "SURRY", "FIPS": "37171", "DIRECTIONS": "", "EMERGTITLE": "", "EMERGPHONE": "", "EMERGEXT": "", "CONTDATE": "0000\/00\/00", "CONTHOW": "", "GEODATE": "2007\/03\/19", "GEOHOW": "AUTO", "NAICSCODE": "922190", "NAICSDESCR": "EMERGENCY PLANNING AND MANAGEMENT OFFICES, GOVERNMENT", "GEOLINKID": "102397230", "SOURCE": "NCGIS", "X": -80.611705, "Y": 36.487578, "ST_VENDOR": "NAVTEQ", "ST_VERSION": "2006Q4", "GEOPREC": "BLOCKFACE", "PHONELOC": "", "QC_QA": "", "EOC_ID": "58" }, "geometry": { "type": "Point", "coordinates": [ 465174.820276, 304877.853560 ] } }
,
{ "type": "Feature", "properties": { "ID": "10213083", "METLNKID": "", "FEATTYPE": "POINT", "SECCLASS": "UNCLASSIFIED", "NAME": "NEW HANOVER COUNTY EMERGENCY MANAGEMENT", "onemap_pro": "", "PHONE": "", "ADDRESS": "20 N 4TH ST", "ADDRESS2": "", "CITY": "WILMINGTON", "STATE": "NC", "ZIP": "28401", "ZIPP4": "4533", "COUNTY": "NEW HANOVER", "FIPS": "37129", "DIRECTIONS": "", "EMERGTITLE": "", "EMERGPHONE": "", "EMERGEXT": "", "CONTDATE": "0000\/00\/00", "CONTHOW": "", "GEODATE": "2007\/03\/19", "GEOHOW": "AUTO", "NAICSCODE": "922190", "NAICSDESCR": "EMERGENCY PLANNING AND MANAGEMENT OFFICES, GOVERNMENT", "GEOLINKID": "102767888", "SOURCE": "NCGIS", "X": -77.944399, "Y": 34.236120, "ST_VENDOR": "NAVTEQ", "ST_VERSION": "2006Q4", "GEOPREC": "BLOCKFACE", "PHONELOC": "", "QC_QA": "", "EOC_ID": "59" }, "geometry": { "type": "Point", "coordinates": [ 706852.992661, 54444.731023 ] } }
,
{ "type": "Feature", "properties": { "ID": "10213086", "METLNKID": "", "FEATTYPE": "POINT", "SECCLASS": "UNCLASSIFIED", "NAME": "TRANSYLVANIA COUNTY EMERGENCY MANAGEMEN", "onemap_pro": "", "PHONE": "", "ADDRESS": "100 OLD HENDERSONVILLE HWY", "ADDRESS2": "", "CITY": "BREVARD", "STATE": "NC", "ZIP": "28712", "ZIPP4": "", "COUNTY": "TRANSYLVANIA", "FIPS": "37175", "DIRECTIONS": "", "EMERGTITLE": "", "EMERGPHONE": "", "EMERGEXT": "", "CONTDATE": "0000\/00\/00", "CONTHOW": "", "GEODATE": "2007\/03\/19", "GEOHOW": "AUTO", "NAICSCODE": "922190", "NAICSDESCR": "EMERGENCY PLANNING AND MANAGEMENT OFFICES, GOVERNMENT", "GEOLINKID": "102940886", "SOURCE": "NCGIS", "X": -82.696324, "Y": 35.255995, "ST_VENDOR": "NAVTEQ", "ST_VERSION": "2006Q4", "GEOPREC": "BLOCKFACE", "PHONELOC": "", "QC_QA": "", "EOC_ID": "62" }, "geometry": { "type": "Point", "coordinates": [ 273345.438977, 173320.919806 ] } }
,
{ "type": "Feature", "properties": { "ID": "10213088", "METLNKID": "", "FEATTYPE": "POINT", "SECCLASS": "UNCLASSIFIED", "NAME": "POLK COUNTY EMERGENCY MANAGEMENT", "onemap_pro": "", "PHONE": "", "ADDRESS": "100 WARD ST", "ADDRESS2": "", "CITY": "COLUMBUS", "STATE": "NC", "ZIP": "28722", "ZIPP4": "9401", "COUNTY": "POLK", "FIPS": "37149", "DIRECTIONS": "", "EMERGTITLE": "", "EMERGPHONE": "", "EMERGEXT": "", "CONTDATE": "0000\/00\/00", "CONTHOW": "", "GEODATE": "2007\/03\/19", "GEOHOW": "AUTO", "NAICSCODE": "922190", "NAICSDESCR": "EMERGENCY PLANNING AND MANAGEMENT OFFICES, GOVERNMENT", "GEOLINKID": "102657820", "SOURCE": "NCGIS", "X": -82.197320, "Y": 35.251950, "ST_VENDOR": "NAVTEQ", "ST_VERSION": "2006Q4", "GEOPREC": "BLOCKFACE", "PHONELOC": "", "QC_QA": "", "EOC_ID": "64" }, "geometry": { "type": "Point", "coordinates": [ 318708.579628, 171296.178940 ] } }
,
{ "type": "Feature", "properties": { "ID": "10213089", "METLNKID": "", "FEATTYPE": "POINT", "SECCLASS": "UNCLASSIFIED", "NAME": "MCDOWELL COUNTY EMERGENCY MANAGEMENT", "onemap_pro": "", "PHONE": "", "ADDRESS": "10 E COURT ST", "ADDRESS2": "", "CITY": "MARION", "STATE": "NC", "ZIP": "28752", "ZIPP4": "4041", "COUNTY": "MCDOWELL", "FIPS": "37111", "DIRECTIONS": "", "EMERGTITLE": "", "EMERGPHONE": "", "EMERGEXT": "", "CONTDATE": "0000\/00\/00", "CONTHOW": "", "GEODATE": "2007\/03\/19", "GEOHOW": "AUTO", "NAICSCODE": "922190", "NAICSDESCR": "EMERGENCY PLANNING AND MANAGEMENT OFFICES, GOVERNMENT", "GEOLINKID": "102947910", "SOURCE": "NCGIS", "X": -82.008439, "Y": 35.683980, "ST_VENDOR": "NAVTEQ", "ST_VERSION": "2006Q4", "GEOPREC": "BLOCKFACE", "PHONELOC": "", "QC_QA": "", "EOC_ID": "65" }, "geometry": { "type": "Point", "coordinates": [ 337339.870525, 218664.768296 ] } }
,
{ "type": "Feature", "properties": { "ID": "10213090", "METLNKID": "", "FEATTYPE": "POINT", "SECCLASS": "UNCLASSIFIED", "NAME": "YANCEY COUNTY EMERGENCY MANAGEMENT", "onemap_pro": "", "PHONE": "", "ADDRESS": "118 N MAIN ST", "ADDRESS2": "", "CITY": "BURNSVILLE", "STATE": "NC", "ZIP": "28714", "ZIPP4": "2927", "COUNTY": "YANCEY", "FIPS": "37199", "DIRECTIONS": "", "EMERGTITLE": "", "EMERGPHONE": "", "EMERGEXT": "", "CONTDATE": "0000\/00\/00", "CONTHOW": "", "GEODATE": "2007\/03\/19", "GEOHOW": "AUTO", "NAICSCODE": "922190", "NAICSDESCR": "EMERGENCY PLANNING AND MANAGEMENT OFFICES, GOVERNMENT", "GEOLINKID": "102909869", "SOURCE": "NCGIS", "X": -82.299081, "Y": 35.919984, "ST_VENDOR": "NAVTEQ", "ST_VERSION": "2006Q4", "GEOPREC": "BLOCKFACE", "PHONELOC": "", "QC_QA": "", "EOC_ID": "66" }, "geometry": { "type": "Point", "coordinates": [ 311916.203301, 245669.673793 ] } }
,
{ "type": "Feature", "properties": { "ID": "10213092", "METLNKID": "", "FEATTYPE": "POINT", "SECCLASS": "UNCLASSIFIED", "NAME": "BURKE COUNTY EMERGENCY MANAGEMENT", "onemap_pro": "", "PHONE": "", "ADDRESS": "200 AVERY AVE", "ADDRESS2": "", "CITY": "MORGANTON", "STATE": "NC", "ZIP": "28655", "ZIPP4": "3103", "COUNTY": "BURKE", "FIPS": "37023", "DIRECTIONS": "", "EMERGTITLE": "", "EMERGPHONE": "", "EMERGEXT": "", "CONTDATE": "0000\/00\/00", "CONTHOW": "", "GEODATE": "2007\/03\/19", "GEOHOW": "AUTO", "NAICSCODE": "922190", "NAICSDESCR": "EMERGENCY PLANNING AND MANAGEMENT OFFICES, GOVERNMENT", "GEOLINKID": "118981936", "SOURCE": "NCGIS", "X": -81.686948, "Y": 35.749301, "ST_VENDOR": "NAVTEQ", "ST_VERSION": "2006Q4", "GEOPREC": "BLOCKFACE", "PHONELOC": "", "QC_QA": "", "EOC_ID": "68" }, "geometry": { "type": "Point", "coordinates": [ 366623.106392, 225074.408238 ] } }
,
{ "type": "Feature", "properties": { "ID": "10213094", "METLNKID": "", "FEATTYPE": "POINT", "SECCLASS": "UNCLASSIFIED", "NAME": "CATAWBA COUNTY EMERGENCY MANAGEMENT", "onemap_pro": "", "PHONE": "", "ADDRESS": "100 SOUTHWEST BLVD", "ADDRESS2": "", "CITY": "NEWTON", "STATE": "NC", "ZIP": "28658", "ZIPP4": "3901", "COUNTY": "CATAWBA", "FIPS": "37035", "DIRECTIONS": "", "EMERGTITLE": "", "EMERGPHONE": "", "EMERGEXT": "", "CONTDATE": "0000\/00\/00", "CONTHOW": "", "GEODATE": "2007\/03\/19", "GEOHOW": "AUTO", "NAICSCODE": "922190", "NAICSDESCR": "EMERGENCY PLANNING AND MANAGEMENT OFFICES, GOVERNMENT", "GEOLINKID": "125100631", "SOURCE": "NCGIS", "X": -81.230799, "Y": 35.664023, "ST_VENDOR": "NAVTEQ", "ST_VERSION": "2006Q4", "GEOPREC": "BLOCKFACE", "PHONELOC": "", "QC_QA": "", "EOC_ID": "70" }, "geometry": { "type": "Point", "coordinates": [ 407652.015486, 214594.116388 ] } }
,
{ "type": "Feature", "properties": { "ID": "10213095", "METLNKID": "", "FEATTYPE": "POINT", "SECCLASS": "UNCLASSIFIED", "NAME": "LINCOLN COUNTY EMERGENCY MANAGEMENT", "onemap_pro": "", "PHONE": "", "ADDRESS": "115 W MAIN ST", "ADDRESS2": "", "CITY": "LINCOLNTON", "STATE": "NC", "ZIP": "28092", "ZIPP4": "2601", "COUNTY": "LINCOLN", "FIPS": "37109", "DIRECTIONS": "", "EMERGTITLE": "", "EMERGPHONE": "", "EMERGEXT": "", "CONTDATE": "0000\/00\/00", "CONTHOW": "", "GEODATE": "2007\/03\/19", "GEOHOW": "AUTO", "NAICSCODE": "922190", "NAICSDESCR": "EMERGENCY PLANNING AND MANAGEMENT OFFICES, GOVERNMENT", "GEOLINKID": "102099735", "SOURCE": "NCGIS", "X": -81.257586, "Y": 35.470837, "ST_VENDOR": "NAVTEQ", "ST_VERSION": "2006Q4", "GEOPREC": "BLOCKFACE", "PHONELOC": "", "QC_QA": "", "EOC_ID": "71" }, "geometry": { "type": "Point", "coordinates": [ 404740.072828, 193222.646544 ] } }
,
{ "type": "Feature", "properties": { "ID": "10213096", "METLNKID": "", "FEATTYPE": "POINT", "SECCLASS": "UNCLASSIFIED", "NAME": "GASTON COUNTY EMERGENCY MANAGEMENT", "onemap_pro": "", "PHONE": "", "ADDRESS": "615 N HIGHLAND ST", "ADDRESS2": "", "CITY": "GASTONIA", "STATE": "NC", "ZIP": "28052", "ZIPP4": "2179", "COUNTY": "GASTON", "FIPS": "37071", "DIRECTIONS": "", "EMERGTITLE": "", "EMERGPHONE": "", "EMERGEXT": "", "CONTDATE": "0000\/00\/00", "CONTHOW": "", "GEODATE": "2007\/03\/19", "GEOHOW": "AUTO", "NAICSCODE": "922190", "NAICSDESCR": "EMERGENCY PLANNING AND MANAGEMENT OFFICES, GOVERNMENT", "GEOLINKID": "28216235", "SOURCE": "NCGIS", "X": -81.194374, "Y": 35.270584, "ST_VENDOR": "NAVTEQ", "ST_VERSION": "2006Q4", "GEOPREC": "BLOCKFACE", "PHONELOC": "", "QC_QA": "", "EOC_ID": "72" }, "geometry": { "type": "Point", "coordinates": [ 409984.210305, 170884.637435 ] } }
,
{ "type": "Feature", "properties": { "ID": "10213098", "METLNKID": "", "FEATTYPE": "POINT", "SECCLASS": "UNCLASSIFIED", "NAME": "STOKES COUNTY EMERGENCY MANAGEMENT", "onemap_pro": "", "PHONE": "", "ADDRESS": "1101 MAIN STREET", "ADDRESS2": "", "CITY": "DANBURY", "STATE": "NC", "ZIP": "27016", "ZIPP4": "7413", "COUNTY": "STOKES", "FIPS": "37169", "DIRECTIONS": "", "EMERGTITLE": "", "EMERGPHONE": "", "EMERGEXT": "", "CONTDATE": "0000\/00\/00", "CONTHOW": "", "GEODATE": "2007\/03\/19", "GEOHOW": "AUTO", "NAICSCODE": "922190", "NAICSDESCR": "EMERGENCY PLANNING AND MANAGEMENT OFFICES, GOVERNMENT", "GEOLINKID": "125364474", "SOURCE": "NCGIS", "X": -80.213850, "Y": 36.411500, "ST_VENDOR": "NAVTEQ", "ST_VERSION": "2006Q4", "GEOPREC": "BLOCKFACE", "PHONELOC": "", "QC_QA": "", "EOC_ID": "74" }, "geometry": { "type": "Point", "coordinates": [ 500721.667541, 295928.247152 ] } }
,
{ "type": "Feature", "properties": { "ID": "10213100", "METLNKID": "", "FEATTYPE": "POINT", "SECCLASS": "UNCLASSIFIED", "NAME": "RANDOLPH COUNTY EMERGENCY MANAGEMENT", "onemap_pro": "", "PHONE": "", "ADDRESS": "152 N FAYETTEVILLE ST", "ADDRESS2": "", "CITY": "ASHEBORO", "STATE": "NC", "ZIP": "27203", "ZIPP4": "5516", "COUNTY": "RANDOLPH", "FIPS": "37151", "DIRECTIONS": "", "EMERGTITLE": "", "EMERGPHONE": "", "EMERGEXT": "", "CONTDATE": "0000\/00\/00", "CONTHOW": "", "GEODATE": "2007\/03\/19", "GEOHOW": "AUTO", "NAICSCODE": "922190", "NAICSDESCR": "EMERGENCY PLANNING AND MANAGEMENT OFFICES, GOVERNMENT", "GEOLINKID": "102411769", "SOURCE": "NCGIS", "X": -79.813572, "Y": 35.706942, "ST_VENDOR": "NAVTEQ", "ST_VERSION": "2006Q4", "GEOPREC": "BLOCKFACE", "PHONELOC": "", "QC_QA": "", "EOC_ID": "76" }, "geometry": { "type": "Point", "coordinates": [ 535984.020982, 217388.081959 ] } }
,
{ "type": "Feature", "properties": { "ID": "10213101", "METLNKID": "", "FEATTYPE": "POINT", "SECCLASS": "UNCLASSIFIED", "NAME": "SCOTLAND COUNTY EMERGENCY MANAGEMENT", "onemap_pro": "", "PHONE": "", "ADDRESS": "1403 WEST BLVD", "ADDRESS2": "", "CITY": "LAURINBURG", "STATE": "NC", "ZIP": "28352", "ZIPP4": "9170", "COUNTY": "SCOTLAND", "FIPS": "37165", "DIRECTIONS": "", "EMERGTITLE": "", "EMERGPHONE": "", "EMERGEXT": "", "CONTDATE": "0000\/00\/00", "CONTHOW": "", "GEODATE": "2007\/03\/19", "GEOHOW": "AUTO", "NAICSCODE": "922190", "NAICSDESCR": "EMERGENCY PLANNING AND MANAGEMENT OFFICES, GOVERNMENT", "GEOLINKID": "109847064", "SOURCE": "NCGIS", "X": -79.488438, "Y": 34.761219, "ST_VENDOR": "NAVTEQ", "ST_VERSION": "2006Q4", "GEOPREC": "BLOCKFACE", "PHONELOC": "", "QC_QA": "", "EOC_ID": "77" }, "geometry": { "type": "Point", "coordinates": [ 564887.754257, 112285.510341 ] } }
,
{ "type": "Feature", "properties": { "ID": "10213102", "METLNKID": "", "FEATTYPE": "POINT", "SECCLASS": "UNCLASSIFIED", "NAME": "LEE COUNTY EMERGENCY MANAGEMENT", "onemap_pro": "", "PHONE": "", "ADDRESS": "225 E WEATHERSPOON ST", "ADDRESS2": "", "CITY": "SANFORD", "STATE": "NC", "ZIP": "27330", "ZIPP4": "3643", "COUNTY": "LEE", "FIPS": "37105", "DIRECTIONS": "", "EMERGTITLE": "", "EMERGPHONE": "", "EMERGEXT": "", "CONTDATE": "0000\/00\/00", "CONTHOW": "", "GEODATE": "2007\/03\/19", "GEOHOW": "AUTO", "NAICSCODE": "922190", "NAICSDESCR": "EMERGENCY PLANNING AND MANAGEMENT OFFICES, GOVERNMENT", "GEOLINKID": "125355537", "SOURCE": "NCGIS", "X": -79.175025, "Y": 35.489063, "ST_VENDOR": "NAVTEQ", "ST_VERSION": "2006Q4", "GEOPREC": "BLOCKFACE", "PHONELOC": "", "QC_QA": "", "EOC_ID": "78" }, "geometry": { "type": "Point", "coordinates": [ 593721.062956, 192928.963344 ] } }
,
{ "type": "Feature", "properties": { "ID": "10213104", "METLNKID": "", "FEATTYPE": "POINT", "SECCLASS": "UNCLASSIFIED", "NAME": "DURHAM COUNTY EMERGENCY MANAGEMENT", "onemap_pro": "", "PHONE": "", "ADDRESS": "314 N MANGUM ST", "ADDRESS2": "", "CITY": "DURHAM", "STATE": "NC", "ZIP": "27701", "ZIPP4": "3309", "COUNTY": "DURHAM", "FIPS": "37063", "DIRECTIONS": "", "EMERGTITLE": "", "EMERGPHONE": "", "EMERGEXT": "", "CONTDATE": "0000\/00\/00", "CONTHOW": "", "GEODATE": "2007\/03\/19", "GEOHOW": "AUTO", "NAICSCODE": "922190", "NAICSDESCR": "EMERGENCY PLANNING AND MANAGEMENT OFFICES, GOVERNMENT", "GEOLINKID": "17127189", "SOURCE": "NCGIS", "X": -78.899226, "Y": 35.996156, "ST_VENDOR": "NAVTEQ", "ST_VERSION": "2006Q4", "GEOPREC": "BLOCKFACE", "PHONELOC": "", "QC_QA": "", "EOC_ID": "80" }, "geometry": { "type": "Point", "coordinates": [ 618687.399491, 249178.798916 ] } }
,
{ "type": "Feature", "properties": { "ID": "10213105", "METLNKID": "", "FEATTYPE": "POINT", "SECCLASS": "UNCLASSIFIED", "NAME": "HOKE COUNTY EMERGENCY MANAGEMENT", "onemap_pro": "", "PHONE": "", "ADDRESS": "423 E CENTRAL AVE", "ADDRESS2": "", "CITY": "RAEFORD", "STATE": "NC", "ZIP": "28376", "ZIPP4": "2911", "COUNTY": "HOKE", "FIPS": "37093", "DIRECTIONS": "", "EMERGTITLE": "", "EMERGPHONE": "", "EMERGEXT": "", "CONTDATE": "0000\/00\/00", "CONTHOW": "", "GEODATE": "2007\/03\/19", "GEOHOW": "AUTO", "NAICSCODE": "922190", "NAICSDESCR": "EMERGENCY PLANNING AND MANAGEMENT OFFICES, GOVERNMENT", "GEOLINKID": "102420609", "SOURCE": "NCGIS", "X": -79.220800, "Y": 34.979107, "ST_VENDOR": "NAVTEQ", "ST_VERSION": "2006Q4", "GEOPREC": "BLOCKFACE", "PHONELOC": "", "QC_QA": "", "EOC_ID": "81" }, "geometry": { "type": "Point", "coordinates": [ 589442.029096, 136367.502043 ] } }
,
{ "type": "Feature", "properties": { "ID": "10213106", "METLNKID": "", "FEATTYPE": "POINT", "SECCLASS": "UNCLASSIFIED", "NAME": "GRANVILLE COUNTY EMERGENCY MANAGEMENT", "onemap_pro": "", "PHONE": "", "ADDRESS": "143 WILLIAMSBORO ST", "ADDRESS2": "", "CITY": "OXFORD", "STATE": "NC", "ZIP": "27565", "ZIPP4": "3328", "COUNTY": "GRANVILLE", "FIPS": "37077", "DIRECTIONS": "", "EMERGTITLE": "", "EMERGPHONE": "", "EMERGEXT": "", "CONTDATE": "0000\/00\/00", "CONTHOW": "", "GEODATE": "2007\/03\/19", "GEOHOW": "AUTO", "NAICSCODE": "922190", "NAICSDESCR": "EMERGENCY PLANNING AND MANAGEMENT OFFICES, GOVERNMENT", "GEOLINKID": "102372611", "SOURCE": "NCGIS", "X": -78.587889, "Y": 36.312491, "ST_VENDOR": "NAVTEQ", "ST_VERSION": "2006Q4", "GEOPREC": "BLOCKFACE", "PHONELOC": "", "QC_QA": "", "EOC_ID": "82" }, "geometry": { "type": "Point", "coordinates": [ 646613.040733, 284352.109413 ] } }
,
{ "type": "Feature", "properties": { "ID": "10213107", "METLNKID": "", "FEATTYPE": "POINT", "SECCLASS": "UNCLASSIFIED", "NAME": "FRANKLIN COUNTYEMERGENCY MANAGEMENT", "onemap_pro": "", "PHONE": "", "ADDRESS": "8146 NC HIGHWAY  56", "ADDRESS2": "", "CITY": "LOUISBURG", "STATE": "NC", "ZIP": "27549", "ZIPP4": "6711", "COUNTY": "FRANKLIN", "FIPS": "37069", "DIRECTIONS": "", "EMERGTITLE": "", "EMERGPHONE": "", "EMERGEXT": "", "CONTDATE": "0000\/00\/00", "CONTHOW": "", "GEODATE": "2007\/03\/19", "GEOHOW": "AUTO", "NAICSCODE": "922190", "NAICSDESCR": "EMERGENCY PLANNING AND MANAGEMENT OFFICES, GOVERNMENT", "GEOLINKID": "102947620", "SOURCE": "NCGIS", "X": -78.330160, "Y": 36.086076, "ST_VENDOR": "NAVTEQ", "ST_VERSION": "2006Q4", "GEOPREC": "BLOCKFACE", "PHONELOC": "", "QC_QA": "", "EOC_ID": "83" }, "geometry": { "type": "Point", "coordinates": [ 669929.039475, 259354.905422 ] } }
,
{ "type": "Feature", "properties": { "ID": "10213108", "METLNKID": "", "FEATTYPE": "POINT", "SECCLASS": "UNCLASSIFIED", "NAME": "DUPLIN COUNTY EMERGENCY MANAGEMENT", "onemap_pro": "", "PHONE": "", "ADDRESS": "213 DUPLIN ST", "ADDRESS2": "", "CITY": "KENANSVILLE", "STATE": "NC", "ZIP": "28349", "ZIPP4": "9025", "COUNTY": "DUPLIN", "FIPS": "37061", "DIRECTIONS": "", "EMERGTITLE": "", "EMERGPHONE": "", "EMERGEXT": "", "CONTDATE": "0000\/00\/00", "CONTHOW": "", "GEODATE": "2007\/03\/19", "GEOHOW": "AUTO", "NAICSCODE": "922190", "NAICSDESCR": "EMERGENCY PLANNING AND MANAGEMENT OFFICES, GOVERNMENT", "GEOLINKID": "102862582", "SOURCE": "NCGIS", "X": -77.962935, "Y": 34.963080, "ST_VENDOR": "NAVTEQ", "ST_VERSION": "2006Q4", "GEOPREC": "BLOCKFACE", "PHONELOC": "", "QC_QA": "", "EOC_ID": "84" }, "geometry": { "type": "Point", "coordinates": [ 704302.900883, 135061.910234 ] } }
,
{ "type": "Feature", "properties": { "ID": "10213109", "METLNKID": "", "FEATTYPE": "POINT", "SECCLASS": "UNCLASSIFIED", "NAME": "WAYNE COUNTY EMERGENCY MANAGEMENT", "onemap_pro": "", "PHONE": "", "ADDRESS": "209 S WILLIAM ST", "ADDRESS2": "", "CITY": "GOLDSBORO", "STATE": "NC", "ZIP": "27530", "ZIPP4": "4824", "COUNTY": "WAYNE", "FIPS": "37191", "DIRECTIONS": "", "EMERGTITLE": "", "EMERGPHONE": "", "EMERGEXT": "", "CONTDATE": "0000\/00\/00", "CONTHOW": "", "GEODATE": "2007\/03\/19", "GEOHOW": "AUTO", "NAICSCODE": "922190", "NAICSDESCR": "EMERGENCY PLANNING AND MANAGEMENT OFFICES, GOVERNMENT", "GEOLINKID": "102621040", "SOURCE": "NCGIS", "X": -77.994701, "Y": 35.380584, "ST_VENDOR": "NAVTEQ", "ST_VERSION": "2006Q4", "GEOPREC": "BLOCKFACE", "PHONELOC": "", "QC_QA": "", "EOC_ID": "85" }, "geometry": { "type": "Point", "coordinates": [ 700933.176976, 181343.333125 ] } }
,
{ "type": "Feature", "properties": { "ID": "10213112", "METLNKID": "", "FEATTYPE": "POINT", "SECCLASS": "UNCLASSIFIED", "NAME": "JONES COUNTY EMERGENCY MANAGEMENT", "onemap_pro": "", "PHONE": "", "ADDRESS": "101 MARKET ST", "ADDRESS2": "", "CITY": "TRENTON", "STATE": "NC", "ZIP": "28585", "ZIPP4": "5000", "COUNTY": "JONES", "FIPS": "37103", "DIRECTIONS": "", "EMERGTITLE": "", "EMERGPHONE": "", "EMERGEXT": "", "CONTDATE": "0000\/00\/00", "CONTHOW": "", "GEODATE": "2007\/03\/19", "GEOHOW": "AUTO", "NAICSCODE": "922190", "NAICSDESCR": "EMERGENCY PLANNING AND MANAGEMENT OFFICES, GOVERNMENT", "GEOLINKID": "102097088", "SOURCE": "NCGIS", "X": -77.353424, "Y": 35.063243, "ST_VENDOR": "NAVTEQ", "ST_VERSION": "2006Q4", "GEOPREC": "BLOCKFACE", "PHONELOC": "", "QC_QA": "", "EOC_ID": "88" }, "geometry": { "type": "Point", "coordinates": [ 759773.136582, 146923.528933 ] } }
,
{ "type": "Feature", "properties": { "ID": "10213113", "METLNKID": "", "FEATTYPE": "POINT", "SECCLASS": "UNCLASSIFIED", "NAME": "LENOIR COUNTY EMERGENCY MANAGEMENT", "onemap_pro": "", "PHONE": "", "ADDRESS": "201 E KING ST", "ADDRESS2": "", "CITY": "KINSTON", "STATE": "NC", "ZIP": "28501", "ZIPP4": "4917", "COUNTY": "LENOIR", "FIPS": "37107", "DIRECTIONS": "", "EMERGTITLE": "", "EMERGPHONE": "", "EMERGEXT": "", "CONTDATE": "0000\/00\/00", "CONTHOW": "", "GEODATE": "2007\/03\/19", "GEOHOW": "AUTO", "NAICSCODE": "922190", "NAICSDESCR": "EMERGENCY PLANNING AND MANAGEMENT OFFICES, GOVERNMENT", "GEOLINKID": "102366495", "SOURCE": "NCGIS", "X": -77.579104, "Y": 35.258524, "ST_VENDOR": "NAVTEQ", "ST_VERSION": "2006Q4", "GEOPREC": "BLOCKFACE", "PHONELOC": "", "QC_QA": "", "EOC_ID": "89" }, "geometry": { "type": "Point", "coordinates": [ 738882.074291, 168265.691897 ] } }
,
{ "type": "Feature", "properties": { "ID": "10213115", "METLNKID": "", "FEATTYPE": "POINT", "SECCLASS": "UNCLASSIFIED", "NAME": "NORTHAMPTON COUNTY EMERGENCY MANAGEMENT", "onemap_pro": "", "PHONE": "", "ADDRESS": "1000 NC HWY 305", "ADDRESS2": "", "CITY": "JACKSON", "STATE": "NC", "ZIP": "27845", "ZIPP4": "", "COUNTY": "NORTHAMPTON", "FIPS": "37131", "DIRECTIONS": "", "EMERGTITLE": "", "EMERGPHONE": "", "EMERGEXT": "", "CONTDATE": "0000\/00\/00", "CONTHOW": "", "GEODATE": "2007\/03\/19", "GEOHOW": "AUTO", "NAICSCODE": "922190", "NAICSDESCR": "EMERGENCY PLANNING AND MANAGEMENT OFFICES, GOVERNMENT", "GEOLINKID": "123635818", "SOURCE": "NCGIS", "X": -77.433743, "Y": 36.406034, "ST_VENDOR": "NAVTEQ", "ST_VERSION": "2006Q4", "GEOPREC": "BLOCKFACE", "PHONELOC": "", "QC_QA": "", "EOC_ID": "91" }, "geometry": { "type": "Point", "coordinates": [ 750098.081469, 295764.337520 ] } }
,
{ "type": "Feature", "properties": { "ID": "10213116", "METLNKID": "", "FEATTYPE": "POINT", "SECCLASS": "UNCLASSIFIED", "NAME": "PITT COUNTY EMERGENCY MANAGEMENT", "onemap_pro": "", "PHONE": "", "ADDRESS": "1717 W 5TH STREET", "ADDRESS2": "", "CITY": "GREENVILLE", "STATE": "NC", "ZIP": "27834", "ZIPP4": "1601", "COUNTY": "PITT", "FIPS": "37147", "DIRECTIONS": "", "EMERGTITLE": "", "EMERGPHONE": "", "EMERGEXT": "", "CONTDATE": "0000\/00\/00", "CONTHOW": "", "GEODATE": "2007\/03\/19", "GEOHOW": "AUTO", "NAICSCODE": "922190", "NAICSDESCR": "EMERGENCY PLANNING AND MANAGEMENT OFFICES, GOVERNMENT", "GEOLINKID": "102379813", "SOURCE": "NCGIS", "X": -77.393683, "Y": 35.612723, "ST_VENDOR": "NAVTEQ", "ST_VERSION": "2006Q4", "GEOPREC": "BLOCKFACE", "PHONELOC": "", "QC_QA": "", "EOC_ID": "92" }, "geometry": { "type": "Point", "coordinates": [ 755115.460290, 207810.974494 ] } }
,
{ "type": "Feature", "properties": { "ID": "10213118", "METLNKID": "", "FEATTYPE": "POINT", "SECCLASS": "UNCLASSIFIED", "NAME": "TYRRELL COUNTY EMERGENCY MANAGEMENT", "onemap_pro": "", "PHONE": "", "ADDRESS": "310 MAIN ST", "ADDRESS2": "", "CITY": "COLUMBIA", "STATE": "NC", "ZIP": "27925", "ZIPP4": "", "COUNTY": "TYRRELL", "FIPS": "37177", "DIRECTIONS": "", "EMERGTITLE": "", "EMERGPHONE": "", "EMERGEXT": "", "CONTDATE": "0000\/00\/00", "CONTHOW": "", "GEODATE": "2007\/03\/19", "GEOHOW": "AUTO", "NAICSCODE": "922190", "NAICSDESCR": "EMERGENCY PLANNING AND MANAGEMENT OFFICES, GOVERNMENT", "GEOLINKID": "90768065", "SOURCE": "NCGIS", "X": -76.252707, "Y": 35.917901, "ST_VENDOR": "NAVTEQ", "ST_VERSION": "2006Q4", "GEOPREC": "BLOCKFACE", "PHONELOC": "", "QC_QA": "", "EOC_ID": "94" }, "geometry": { "type": "Point", "coordinates": [ 857517.295393, 243922.334527 ] } }
,
{ "type": "Feature", "properties": { "ID": "10213122", "METLNKID": "", "FEATTYPE": "POINT", "SECCLASS": "UNCLASSIFIED", "NAME": "PERQUIMANS COUNTY EMERGENCY MANAGEMENT", "onemap_pro": "", "PHONE": "", "ADDRESS": "128 NORTH CHURCH ST", "ADDRESS2": "", "CITY": "HERTFORD", "STATE": "NC", "ZIP": "27944", "ZIPP4": "1174", "COUNTY": "PERQUIMANS", "FIPS": "37143", "DIRECTIONS": "", "EMERGTITLE": "", "EMERGPHONE": "", "EMERGEXT": "", "CONTDATE": "0000\/00\/00", "CONTHOW": "", "GEODATE": "2007\/03\/19", "GEOHOW": "AUTO", "NAICSCODE": "922190", "NAICSDESCR": "EMERGENCY PLANNING AND MANAGEMENT OFFICES, GOVERNMENT", "GEOLINKID": "90770488", "SOURCE": "NCGIS", "X": -76.465523, "Y": 36.188936, "ST_VENDOR": "NAVTEQ", "ST_VERSION": "2006Q4", "GEOPREC": "BLOCKFACE", "PHONELOC": "", "QC_QA": "", "EOC_ID": "98" }, "geometry": { "type": "Point", "coordinates": [ 837549.375247, 273474.818907 ] } }
,
{ "type": "Feature", "properties": { "ID": "10213123", "METLNKID": "", "FEATTYPE": "POINT", "SECCLASS": "UNCLASSIFIED", "NAME": "CAMDEN\/PASQUOTANK EMERGENCY MANAGEMENT", "onemap_pro": "", "PHONE": "", "ADDRESS": "103 S ROAD ST", "ADDRESS2": "", "CITY": "ELIZABETH CITY", "STATE": "NC", "ZIP": "27909", "ZIPP4": "4355", "COUNTY": "PASQUOTANK", "FIPS": "37139", "DIRECTIONS": "", "EMERGTITLE": "", "EMERGPHONE": "", "EMERGEXT": "", "CONTDATE": "0000\/00\/00", "CONTHOW": "", "GEODATE": "2007\/03\/19", "GEOHOW": "AUTO", "NAICSCODE": "922190", "NAICSDESCR": "EMERGENCY PLANNING AND MANAGEMENT OFFICES, GOVERNMENT", "GEOLINKID": "90771834", "SOURCE": "NCGIS", "X": -76.224178, "Y": 36.300034, "ST_VENDOR": "NAVTEQ", "ST_VERSION": "2006Q4", "GEOPREC": "BLOCKFACE", "PHONELOC": "", "QC_QA": "", "EOC_ID": "99" }, "geometry": { "type": "Point", "coordinates": [ 858905.534243, 286378.734439 ] } }
,
{ "type": "Feature", "properties": { "ID": "10215731", "METLNKID": "", "FEATTYPE": "POINT", "SECCLASS": "UNCLASSIFIED", "NAME": "DIVISION OF EMERGENCY MANAGEMENT", "onemap_pro": "", "PHONE": "733-3825", "ADDRESS": "116 W JONES ST", "ADDRESS2": "", "CITY": "RALEIGH", "STATE": "NC", "ZIP": "27603", "ZIPP4": "1300", "COUNTY": "WAKE", "FIPS": "37183", "DIRECTIONS": "", "EMERGTITLE": "", "EMERGPHONE": "", "EMERGEXT": "", "CONTDATE": "0000\/00\/00", "CONTHOW": "", "GEODATE": "2007\/03\/19", "GEOHOW": "AUTO", "NAICSCODE": "922190", "NAICSDESCR": "EMERGENCY PLANNING AND MANAGEMENT OFFICES, GOVERNMENT", "GEOLINKID": "17110471", "SOURCE": "FEMA", "X": -78.640460, "Y": 35.782878, "ST_VENDOR": "NAVTEQ", "ST_VERSION": "2006Q4", "GEOPREC": "BLOCKFACE", "PHONELOC": "", "QC_QA": "", "EOC_ID": "" }, "geometry": { "type": "Point", "coordinates": [ 642104.493657, 225569.973038 ] } }
,
{ "type": "Feature", "properties": { "ID": "10218136", "METLNKID": "", "FEATTYPE": "POINT", "SECCLASS": "UNCLASSIFIED", "NAME": "PAMLICO COUNTY EMERGENCY MANAGEMENT AGENCY", "onemap_pro": "", "PHONE": "745-3101", "ADDRESS": "200 MAIN STREET", "ADDRESS2": "", "CITY": "BAYBORO", "STATE": "NC", "ZIP": "28515", "ZIPP4": "", "COUNTY": "PAMLICO", "FIPS": "37137", "DIRECTIONS": "LOCATED ON THE NORTH SIDE OF MAIN STREET BETWEEN NORTHWEST 3RD STREET AND 2ND STREET.", "EMERGTITLE": "", "EMERGPHONE": "", "EMERGEXT": "", "CONTDATE": "2007\/04\/04", "CONTHOW": "PHONE", "GEODATE": "2007\/04\/04", "GEOHOW": "MANUAL", "NAICSCODE": "922190", "NAICSDESCR": "EMERGENCY PLANNING AND MANAGEMENT OFFICES, GOVERNMENT", "GEOLINKID": "102365621", "SOURCE": "TGS", "X": -76.770346, "Y": 35.143093, "ST_VENDOR": "NAVTEQ", "ST_VERSION": "2006Q4", "GEOPREC": "BLOCKFACE", "PHONELOC": "YES", "QC_QA": "TGS", "EOC_ID": "" }, "geometry": { "type": "Point", "coordinates": [ 812744.718072, 156817.107694 ] } }
,
{ "type": "Feature", "properties": { "ID": "10213117", "METLNKID": "", "FEATTYPE": "POINT", "SECCLASS": "UNCLASSIFIED", "NAME": "CARTERET COUNTY EMERGENCY OPERATIONS CENTER", "onemap_pro": "", "PHONE": "728-8470", "ADDRESS": "303 COURT HOUSE SQUARE", "ADDRESS2": "", "CITY": "BEAUFORT", "STATE": "NC", "ZIP": "28516", "ZIPP4": "", "COUNTY": "CARTERET", "FIPS": "37031", "DIRECTIONS": "LOCATED ON THE SOUTHEAST SIDE OF COURTHOUSE SQUARE, BETWEEN CEDAR STREET AND BROAD STREET.", "EMERGTITLE": "", "EMERGPHONE": "", "EMERGEXT": "", "CONTDATE": "2007\/05\/04", "CONTHOW": "PHONE", "GEODATE": "2007\/04\/02", "GEOHOW": "MANUAL", "NAICSCODE": "922190", "NAICSDESCR": "EMERGENCY PLANNING AND MANAGEMENT OFFICES, GOVERNMENT", "GEOLINKID": "102853425", "SOURCE": "NCGIS", "X": -76.662904, "Y": 34.720319, "ST_VENDOR": "NAVTEQ", "ST_VERSION": "2006Q4", "GEOPREC": "BLOCKFACE", "PHONELOC": "YES", "QC_QA": "TGS", "EOC_ID": "93" }, "geometry": { "type": "Point", "coordinates": [ 823635.906306, 110158.174915 ] } }
,
{ "type": "Feature", "properties": { "ID": "10213091", "METLNKID": "", "FEATTYPE": "POINT", "SECCLASS": "UNCLASSIFIED", "NAME": "MITCHELL COUNTY EMERGENCY OPERATIONS CENTER", "onemap_pro": "", "PHONE": "688-3982", "ADDRESS": "47 CRIMSON LAUREL CIRCLE", "ADDRESS2": "", "CITY": "BAKERSVILLE", "STATE": "NC", "ZIP": "28705", "ZIPP4": "9508", "COUNTY": "MITCHELL", "FIPS": "37121", "DIRECTIONS": "NORTHEAST SIDE OF CRIMSON LAUREL CIRCLE BETWEEN MAPLE STREET AND BURLESON DRIVE.", "EMERGTITLE": "", "EMERGPHONE": "", "EMERGEXT": "", "CONTDATE": "2007\/04\/16", "CONTHOW": "PHONE", "GEODATE": "2007\/04\/16", "GEOHOW": "MANUAL", "NAICSCODE": "922190", "NAICSDESCR": "EMERGENCY PLANNING AND MANAGEMENT OFFICES, GOVERNMENT", "GEOLINKID": "102952139", "SOURCE": "NCGIS", "X": -82.155042, "Y": 36.013004, "ST_VENDOR": "NAVTEQ", "ST_VERSION": "2006Q4", "GEOPREC": "BLOCKFACE", "PHONELOC": "YES", "QC_QA": "TGS", "EOC_ID": "67" }, "geometry": { "type": "Point", "coordinates": [ 325236.774194, 255562.885962 ] } }
,
{ "type": "Feature", "properties": { "ID": "10213067", "METLNKID": "", "FEATTYPE": "POINT", "SECCLASS": "UNCLASSIFIED", "NAME": "WAKE COUNTY EMERGENCY MANAGEMENT-EMERGENCY OPERATIONS CENTER", "onemap_pro": "", "PHONE": "856-6480", "ADDRESS": "337 SOUTH SALISBURY STREET", "ADDRESS2": "", "CITY": "RALEIGH", "STATE": "NC", "ZIP": "27601", "ZIPP4": "1728", "COUNTY": "WAKE", "FIPS": "37183", "DIRECTIONS": "LOCATED ON THE NORTHEAST CORNER OF THE INTERSECTION OF WEST DAVIE STREET AND SOUTH SALSBURY STREET.", "EMERGTITLE": "", "EMERGPHONE": "", "EMERGEXT": "", "CONTDATE": "2007\/03\/29", "CONTHOW": "PHONE", "GEODATE": "2007\/03\/29", "GEOHOW": "MANUAL", "NAICSCODE": "922190", "NAICSDESCR": "EMERGENCY PLANNING AND MANAGEMENT OFFICES, GOVERNMENT", "GEOLINKID": "17111747", "SOURCE": "NCGIS", "X": -78.639991, "Y": 35.775812, "ST_VENDOR": "NAVTEQ", "ST_VERSION": "2006Q4", "GEOPREC": "ONENTITY", "PHONELOC": "YES", "QC_QA": "TGS", "EOC_ID": "43" }, "geometry": { "type": "Point", "coordinates": [ 642149.740121, 224786.096942 ] } }
,
{ "type": "Feature", "properties": { "ID": "10216591", "METLNKID": "", "FEATTYPE": "POINT", "SECCLASS": "UNCLASSIFIED", "NAME": "ROCKINGHAM COUNTY 911 CENTER-ALTERNATE", "onemap_pro": "", "PHONE": "634-3300", "ADDRESS": "911 COMMUNICATIONS LANE", "ADDRESS2": "", "CITY": "REIDSVILLE", "STATE": "NC", "ZIP": "27320", "ZIPP4": "8800", "COUNTY": "ROCKINGHAM", "FIPS": "37157", "DIRECTIONS": "LOCATED ON THE EAST SIDE OF COMMUNICATIONS LANE, .14 MILES NORTH OF THE T INTERSECTION OF COMMUNICATIONS LANE AND HIGH SCHOOL ROAD.", "EMERGTITLE": "", "EMERGPHONE": "", "EMERGEXT": "", "CONTDATE": "2007\/03\/29", "CONTHOW": "PHONE", "GEODATE": "2007\/03\/29", "GEOHOW": "MANUAL", "NAICSCODE": "922190", "NAICSDESCR": "EMERGENCY PLANNING AND MANAGEMENT OFFICES, GOVERNMENT", "GEOLINKID": "102443725", "SOURCE": "TGS", "X": -79.742054, "Y": 36.389342, "ST_VENDOR": "NAVTEQ", "ST_VERSION": "2006Q4", "GEOPREC": "ONENTITY", "PHONELOC": "YES", "QC_QA": "TGS", "EOC_ID": "" }, "geometry": { "type": "Point", "coordinates": [ 543021.309437, 293052.441453 ] } }
,
{ "type": "Feature", "properties": { "ID": "10213084", "METLNKID": "", "FEATTYPE": "POINT", "SECCLASS": "UNCLASSIFIED", "NAME": "GRAHAM COUNTY EMERGENCY MANAGEMENT", "onemap_pro": "", "PHONE": "479-7967", "ADDRESS": "45 SOUTH MAIN STREET", "ADDRESS2": "", "CITY": "ROBBINSVILLE", "STATE": "NC", "ZIP": "28771", "ZIPP4": "", "COUNTY": "GRAHAM", "FIPS": "37075", "DIRECTIONS": "LOCATED ON THE EAST SIDE OF THE T INTERSECTION OF HOSANNA STREET AND SOUTH MAIN STREET.", "EMERGTITLE": "", "EMERGPHONE": "", "EMERGEXT": "", "CONTDATE": "2007\/04\/02", "CONTHOW": "PHONE", "GEODATE": "2007\/04\/02", "GEOHOW": "MANUAL", "NAICSCODE": "922190", "NAICSDESCR": "EMERGENCY PLANNING AND MANAGEMENT OFFICES, GOVERNMENT", "GEOLINKID": "102633932", "SOURCE": "NCGIS", "X": -83.806647, "Y": 35.322330, "ST_VENDOR": "NAVTEQ", "ST_VERSION": "2006Q4", "GEOPREC": "BLOCKFACE", "PHONELOC": "YES", "QC_QA": "TGS", "EOC_ID": "60" }, "geometry": { "type": "Point", "coordinates": [ 172764.951716, 184996.465417 ] } }
,
{ "type": "Feature", "properties": { "ID": "10213119", "METLNKID": "", "FEATTYPE": "POINT", "SECCLASS": "UNCLASSIFIED", "NAME": "HERTFORD COUNTY EMERGENCY MANAGEMENT", "onemap_pro": "", "PHONE": "358-7861", "ADDRESS": "102 INDUSTRIAL PARK ROAD", "ADDRESS2": "", "CITY": "WINTON", "STATE": "NC", "ZIP": "27986", "ZIPP4": "9762", "COUNTY": "HERTFORD", "FIPS": "37091", "DIRECTIONS": "LOCATED ON THE WEST SIDE OF INDUSTRIAL PARK ROAD, 0.05 MILES SOUTHWEST OF THE T INTERSECTION OF INDUSTRIAL PARK ROAD AND UNITED STATES HIGHWAY 158.", "EMERGTITLE": "", "EMERGPHONE": "", "EMERGEXT": "", "CONTDATE": "2007\/04\/03", "CONTHOW": "PHONE", "GEODATE": "2007\/04\/03", "GEOHOW": "MANUAL", "NAICSCODE": "922190", "NAICSDESCR": "EMERGENCY PLANNING AND MANAGEMENT OFFICES, GOVERNMENT", "GEOLINKID": "90908722", "SOURCE": "NCGIS", "X": -76.947077, "Y": 36.396292, "ST_VENDOR": "NAVTEQ", "ST_VERSION": "2006Q4", "GEOPREC": "ONENTITY", "PHONELOC": "YES", "QC_QA": "TGS", "EOC_ID": "95" }, "geometry": { "type": "Point", "coordinates": [ 793769.961190, 295479.173999 ] } }
,
{ "type": "Feature", "properties": { "ID": "10213063", "METLNKID": "", "FEATTYPE": "POINT", "SECCLASS": "UNCLASSIFIED", "NAME": "RUTHERFORD COUNTY EMERGENCY MANAGEMENT AGENCY", "onemap_pro": "", "PHONE": "287-6075", "ADDRESS": "339 CALLAHAN KOONE ROAD", "ADDRESS2": "", "CITY": "SPINDALE", "STATE": "NC", "ZIP": "28160", "ZIPP4": "2242", "COUNTY": "RUTHERFORD", "FIPS": "37161", "DIRECTIONS": "LOCATED ON THE NORTHWEST CORNER OF THE INTERSECTION OF CALLAHAN KOONE ROAD AND WITHROW ROAD.", "EMERGTITLE": "", "EMERGPHONE": "", "EMERGEXT": "", "CONTDATE": "2007\/03\/28", "CONTHOW": "PHONE", "GEODATE": "2007\/03\/28", "GEOHOW": "MANUAL", "NAICSCODE": "922190", "NAICSDESCR": "EMERGENCY PLANNING AND MANAGEMENT OFFICES, GOVERNMENT", "GEOLINKID": "102635725", "SOURCE": "NCGIS", "X": -81.911264, "Y": 35.345814, "ST_VENDOR": "NAVTEQ", "ST_VERSION": "2006Q4", "GEOPREC": "ONENTITY", "PHONELOC": "YES", "QC_QA": "TGS", "EOC_ID": "39" }, "geometry": { "type": "Point", "coordinates": [ 345031.497028, 180903.521029 ] } }
,
{ "type": "Feature", "properties": { "ID": "10213071", "METLNKID": "", "FEATTYPE": "POINT", "SECCLASS": "UNCLASSIFIED", "NAME": "YADKIN COUNTY EMERGENCY MANAGEMENT", "onemap_pro": "", "PHONE": "679-4232", "ADDRESS": "201 EAST CHERRY STREET", "ADDRESS2": "", "CITY": "YADKINVILLE", "STATE": "NC", "ZIP": "27055", "ZIPP4": "", "COUNTY": "YADKIN", "FIPS": "37197", "DIRECTIONS": "LOCATED ON THE NORTH SIDE OF EAST CHERRY STREET BETWEEN NORTH JACKSON STREET AND NORTH VAN BUREN STREET.", "EMERGTITLE": "", "EMERGPHONE": "", "EMERGEXT": "", "CONTDATE": "2007\/03\/28", "CONTHOW": "PHONE", "GEODATE": "2007\/03\/28", "GEOHOW": "MANUAL", "NAICSCODE": "922190", "NAICSDESCR": "EMERGENCY PLANNING AND MANAGEMENT OFFICES, GOVERNMENT", "GEOLINKID": "102470377", "SOURCE": "NCGIS", "X": -80.658302, "Y": 36.135450, "ST_VENDOR": "NAVTEQ", "ST_VERSION": "2006Q4", "GEOPREC": "BLOCKFACE", "PHONELOC": "YES", "QC_QA": "TGS", "EOC_ID": "47" }, "geometry": { "type": "Point", "coordinates": [ 460346.916272, 265876.505428 ] } }
,
{ "type": "Feature", "properties": { "ID": "10213103", "METLNKID": "", "FEATTYPE": "POINT", "SECCLASS": "UNCLASSIFIED", "NAME": "ORANGE COUNTY EMERGENCY MANAGEMENT - EMERGENCY OPERATIONS CENTER", "onemap_pro": "", "PHONE": "968-2050", "ADDRESS": "1914 NEW HOPE CHURCH ROAD", "ADDRESS2": "", "CITY": "CHAPEL HILL", "STATE": "NC", "ZIP": "27514", "ZIPP4": "9566", "COUNTY": "ORANGE", "FIPS": "37135", "DIRECTIONS": "LOCATED ON THE NORTHWEST SIDE OF NEW HOPE CHURCH ROAD, 0.22 MILES NORTHEAST OF THE INTERSECTION OF NEW HOPE CHURCH ROAD AND STATE HIGHWAY 86.", "EMERGTITLE": "", "EMERGPHONE": "", "EMERGEXT": "", "CONTDATE": "2007\/04\/04", "CONTHOW": "PHONE", "GEODATE": "2007\/04\/04", "GEOHOW": "MANUAL", "NAICSCODE": "922190", "NAICSDESCR": "EMERGENCY PLANNING AND MANAGEMENT OFFICES, GOVERNMENT", "GEOLINKID": "127898356", "SOURCE": "NCGIS", "X": -79.073091, "Y": 36.020211, "ST_VENDOR": "NAVTEQ", "ST_VERSION": "2006Q4", "GEOPREC": "ONENTITY", "PHONELOC": "YES", "QC_QA": "TGS", "EOC_ID": "79" }, "geometry": { "type": "Point", "coordinates": [ 603013.000756, 251845.653319 ] } }
,
{ "type": "Feature", "properties": { "ID": "10213059", "METLNKID": "", "FEATTYPE": "POINT", "SECCLASS": "UNCLASSIFIED", "NAME": "PERSON COUNTY EMERGENCY SERVICES", "onemap_pro": "", "PHONE": "599-3136", "ADDRESS": "216 WEST BARDEN STREET", "ADDRESS2": "", "CITY": "ROXBORO", "STATE": "NC", "ZIP": "27573", "ZIPP4": "5413", "COUNTY": "PERSON", "FIPS": "37145", "DIRECTIONS": "LOCATED ON THE NORTH SIDE OF BARDEN STREET, BETWEEN CODY STREET AND SOUTH MADISON BOULEVARD.", "EMERGTITLE": "", "EMERGPHONE": "", "EMERGEXT": "", "CONTDATE": "2007\/04\/04", "CONTHOW": "PHONE", "GEODATE": "2007\/04\/04", "GEOHOW": "MANUAL", "NAICSCODE": "922190", "NAICSDESCR": "EMERGENCY PLANNING AND MANAGEMENT OFFICES, GOVERNMENT", "GEOLINKID": "102442523", "SOURCE": "NCGIS", "X": -78.989899, "Y": 36.390198, "ST_VENDOR": "NAVTEQ", "ST_VERSION": "2006Q4", "GEOPREC": "ONENTITY", "PHONELOC": "YES", "QC_QA": "TGS", "EOC_ID": "35" }, "geometry": { "type": "Point", "coordinates": [ 610507.497019, 292898.550637 ] } }
,
{ "type": "Feature", "properties": { "ID": "10213028", "METLNKID": "", "FEATTYPE": "POINT", "SECCLASS": "UNCLASSIFIED", "NAME": "ANSON COUNTY EMERGENCY OPERATIONS CENTER", "onemap_pro": "", "PHONE": "694-7083", "ADDRESS": "107 EAST ASHE STREET", "ADDRESS2": "", "CITY": "WADESBORO", "STATE": "NC", "ZIP": "28170", "ZIPP4": "2701", "COUNTY": "ANSON", "FIPS": "37007", "DIRECTIONS": "LOCATED ON THE NORTHEAST CORNER OF THE INTERSECTION OF EAST ASHE STREET AND SOUTH GREEN STREET.", "EMERGTITLE": "", "EMERGPHONE": "", "EMERGEXT": "", "CONTDATE": "2007\/04\/04", "CONTHOW": "PHONE", "GEODATE": "2007\/04\/04", "GEOHOW": "MANUAL", "NAICSCODE": "922190", "NAICSDESCR": "EMERGENCY PLANNING AND MANAGEMENT OFFICES, GOVERNMENT", "GEOLINKID": "102718425", "SOURCE": "NCGIS", "X": -80.077198, "Y": 34.960637, "ST_VENDOR": "NAVTEQ", "ST_VERSION": "2006Q4", "GEOPREC": "ONENTITY", "PHONELOC": "YES", "QC_QA": "TGS", "EOC_ID": "4" }, "geometry": { "type": "Point", "coordinates": [ 511231.880671, 134829.939418 ] } }
,
{ "type": "Feature", "properties": { "ID": "10213076", "METLNKID": "", "FEATTYPE": "POINT", "SECCLASS": "UNCLASSIFIED", "NAME": "AVERY COUNTY EMERGENCY OPERATIONS CENTER", "onemap_pro": "", "PHONE": "733-8213", "ADDRESS": "175 LINVILLE STREET", "ADDRESS2": "", "CITY": "NEWLAND", "STATE": "NC", "ZIP": "28657", "ZIPP4": "", "COUNTY": "AVERY", "FIPS": "37011", "DIRECTIONS": "LOCATED ON THE NORTHEAST SIDE OF LINVILLE STREET, 0.08 MILES SOUTHEAST OF THE INTERSECTION OF LINVILLE STREET AND STATE HIGHWAY 194.", "EMERGTITLE": "", "EMERGPHONE": "", "EMERGEXT": "", "CONTDATE": "2007\/03\/29", "CONTHOW": "PHONE", "GEODATE": "2007\/03\/29", "GEOHOW": "MANUAL", "NAICSCODE": "922190", "NAICSDESCR": "EMERGENCY PLANNING AND MANAGEMENT OFFICES, GOVERNMENT", "GEOLINKID": "124769431", "SOURCE": "NCGIS", "X": -81.926915, "Y": 36.085122, "ST_VENDOR": "NAVTEQ", "ST_VERSION": "2006Q4", "GEOPREC": "ONENTITY", "PHONELOC": "YES", "QC_QA": "TGS", "EOC_ID": "52" }, "geometry": { "type": "Point", "coordinates": [ 346027.590981, 262931.426129 ] } }
,
{ "type": "Feature", "properties": { "ID": "10213097", "METLNKID": "", "FEATTYPE": "POINT", "SECCLASS": "UNCLASSIFIED", "NAME": "CABARRUS COUNTY EMERGENCY OPERATIONS CENTER", "onemap_pro": "", "PHONE": "920-3000", "ADDRESS": "25 CORBAN AVENUE SOUTHEAST", "ADDRESS2": "LAW ENFORCEMENT CENTER", "CITY": "CONCORD", "STATE": "NC", "ZIP": "28025", "ZIPP4": "3570", "COUNTY": "CABARRUS", "FIPS": "37025", "DIRECTIONS": "LOCATED ON THE SOUTHEAST SIDE OF CORBAN AVENUE SOUTHEAST BETWEEN UNION STREET SOUTH AND CORBAN COURT SOUTHEAST.", "EMERGTITLE": "", "EMERGPHONE": "", "EMERGEXT": "", "CONTDATE": "2007\/04\/05", "CONTHOW": "PHONE", "GEODATE": "2007\/04\/05", "GEOHOW": "MANUAL", "NAICSCODE": "922190", "NAICSDESCR": "EMERGENCY PLANNING AND MANAGEMENT OFFICES, GOVERNMENT", "GEOLINKID": "28204533", "SOURCE": "NCGIS", "X": -80.578477, "Y": 35.408821, "ST_VENDOR": "NAVTEQ", "ST_VERSION": "2006Q4", "GEOPREC": "BLOCKFACE", "PHONELOC": "YES", "QC_QA": "TGS", "EOC_ID": "73" }, "geometry": { "type": "Point", "coordinates": [ 466249.053621, 185153.059593 ] } }
,
{ "type": "Feature", "properties": { "ID": "10213032", "METLNKID": "", "FEATTYPE": "POINT", "SECCLASS": "UNCLASSIFIED", "NAME": "CALDWELL COUNTY EMERGENCY OPERATIONS CENTER", "onemap_pro": "", "PHONE": "757-1424", "ADDRESS": "616 WEST AVENUE NORTHWEST", "ADDRESS2": "", "CITY": "LENOIR", "STATE": "NC", "ZIP": "28645", "ZIPP4": "5188", "COUNTY": "CALDWELL", "FIPS": "37027", "DIRECTIONS": "LOCATED ON THE NORTHWEST SIDE OF WEST AVENUE NORTHWEST BETWEEN MULBERRY STREET NORTHWEST AND RIDGE STREET NORTHWEST.", "EMERGTITLE": "", "EMERGPHONE": "", "EMERGEXT": "", "CONTDATE": "2007\/03\/28", "CONTHOW": "PHONE", "GEODATE": "2007\/03\/28", "GEOHOW": "MANUAL", "NAICSCODE": "922190", "NAICSDESCR": "EMERGENCY PLANNING AND MANAGEMENT OFFICES, GOVERNMENT", "GEOLINKID": "125092516", "SOURCE": "NCGIS", "X": -81.538807, "Y": 35.915577, "ST_VENDOR": "NAVTEQ", "ST_VERSION": "2006Q4", "GEOPREC": "BLOCKFACE", "PHONELOC": "YES", "QC_QA": "TGS", "EOC_ID": "8" }, "geometry": { "type": "Point", "coordinates": [ 380488.076645, 243163.628351 ] } }
,
{ "type": "Feature", "properties": { "ID": "10213055", "METLNKID": "", "FEATTYPE": "POINT", "SECCLASS": "UNCLASSIFIED", "NAME": "MOORE COUNTY PUBLIC SAFETY", "onemap_pro": "", "PHONE": "947-6317", "ADDRESS": "103 SAUNDERS STREET", "ADDRESS2": "", "CITY": "CARTHAGE", "STATE": "NC", "ZIP": "28327", "ZIPP4": "", "COUNTY": "MOORE", "FIPS": "37125", "DIRECTIONS": "LOCATED ON THE WEST CORNER OF THE INTERSECTION OF RAYS STREET AND SAUNDERS STREET.", "EMERGTITLE": "", "EMERGPHONE": "", "EMERGEXT": "", "CONTDATE": "2007\/04\/11", "CONTHOW": "PHONE", "GEODATE": "2007\/04\/11", "GEOHOW": "MANUAL", "NAICSCODE": "922190", "NAICSDESCR": "EMERGENCY PLANNING AND MANAGEMENT OFFICES, GOVERNMENT", "GEOLINKID": "112086445", "SOURCE": "NCGIS", "X": -79.419525, "Y": 35.345633, "ST_VENDOR": "NAVTEQ", "ST_VERSION": "2006Q4", "GEOPREC": "ONENTITY", "PHONELOC": "YES", "QC_QA": "TGS", "EOC_ID": "31" }, "geometry": { "type": "Point", "coordinates": [ 571470.226967, 177084.267265 ] } }
,
{ "type": "Feature", "properties": { "ID": "10215902", "METLNKID": "", "FEATTYPE": "POINT", "SECCLASS": "UNCLASSIFIED", "NAME": "HIGH POINT EMERGENCY OPERATIONS CENTER", "onemap_pro": "", "PHONE": "883-3298", "ADDRESS": "211 SOUTH HAMILTON STREET", "ADDRESS2": "", "CITY": "HIGH POINT", "STATE": "NC", "ZIP": "27260", "ZIPP4": "5250", "COUNTY": "GUILFORD", "FIPS": "37081", "DIRECTIONS": "LOCATED ON THE WEST SIDE OF SOUTH HAMILTON STREET BETWEEN EAST GREEN DRIVE AND EAST COMMERCE AVENUE.", "EMERGTITLE": "", "EMERGPHONE": "", "EMERGEXT": "", "CONTDATE": "2007\/04\/03", "CONTHOW": "PHONE", "GEODATE": "2007\/04\/03", "GEOHOW": "MANUAL", "NAICSCODE": "922190", "NAICSDESCR": "EMERGENCY PLANNING AND MANAGEMENT OFFICES, GOVERNMENT", "GEOLINKID": "17075912", "SOURCE": "DHS\/FPS", "X": -80.003038, "Y": 35.954971, "ST_VENDOR": "NAVTEQ", "ST_VERSION": "2006Q4", "GEOPREC": "ONENTITY", "PHONELOC": "YES", "QC_QA": "TGS", "EOC_ID": "" }, "geometry": { "type": "Point", "coordinates": [ 519118.489062, 245061.710656 ] } }
,
{ "type": "Feature", "properties": { "ID": "10213072", "METLNKID": "", "FEATTYPE": "POINT", "SECCLASS": "UNCLASSIFIED", "NAME": "HALIFAX COUNTY EMERGENCY OPERATIONS CENTER", "onemap_pro": "", "PHONE": "583-2031", "ADDRESS": "10 NORTH KING STREET", "ADDRESS2": "", "CITY": "HALIFAX", "STATE": "NC", "ZIP": "27839", "ZIPP4": "", "COUNTY": "HALIFAX", "FIPS": "37083", "DIRECTIONS": "LOCATED ON THE NORTHWEST SIDE OF NORTH KING STREET BETWEEN SAINT DAVID STREET AND PITTSYLVANIA STREET.", "EMERGTITLE": "", "EMERGPHONE": "", "EMERGEXT": "", "CONTDATE": "2007\/04\/03", "CONTHOW": "PHONE", "GEODATE": "2007\/04\/03", "GEOHOW": "MANUAL", "NAICSCODE": "922190", "NAICSDESCR": "EMERGENCY PLANNING AND MANAGEMENT OFFICES, GOVERNMENT", "GEOLINKID": "22947998", "SOURCE": "NCGIS", "X": -77.589616, "Y": 36.328935, "ST_VENDOR": "NAVTEQ", "ST_VERSION": "2006Q4", "GEOPREC": "ONENTITY", "PHONELOC": "YES", "QC_QA": "TGS", "EOC_ID": "48" }, "geometry": { "type": "Point", "coordinates": [ 736238.419632, 286999.616360 ] } }
,
{ "type": "Feature", "properties": { "ID": "10215903", "METLNKID": "", "FEATTYPE": "POINT", "SECCLASS": "UNCLASSIFIED", "NAME": "RUTHERFORD COUNTY COMMUNICATIONS", "onemap_pro": "", "PHONE": "287-6050", "ADDRESS": "240 NORTH WASHINGTON STREET", "ADDRESS2": "", "CITY": "RUTHERFORDTON", "STATE": "NC", "ZIP": "28139", "ZIPP4": "2406", "COUNTY": "RUTHERFORD", "FIPS": "37161", "DIRECTIONS": "LOCATED ON THE EAST SIDE OF NORTH WASHINGTON STREET BETWEEN WEST 6TH STREET AND  THE SOUTHERN MOST T INTERSECTION OF WEST 5TH STREET AND WEST WASHINGTON STREET.", "EMERGTITLE": "", "EMERGPHONE": "", "EMERGEXT": "", "CONTDATE": "2007\/03\/28", "CONTHOW": "PHONE", "GEODATE": "2007\/03\/28", "GEOHOW": "MANUAL", "NAICSCODE": "922190", "NAICSDESCR": "EMERGENCY PLANNING AND MANAGEMENT OFFICES, GOVERNMENT", "GEOLINKID": "125086496", "SOURCE": "DHS\/FPS", "X": -81.957619, "Y": 35.371057, "ST_VENDOR": "NAVTEQ", "ST_VERSION": "2006Q4", "GEOPREC": "BLOCKFACE", "PHONELOC": "YES", "QC_QA": "TGS", "EOC_ID": "" }, "geometry": { "type": "Point", "coordinates": [ 340903.472448, 183827.084039 ] } }
,
{ "type": "Feature", "properties": { "ID": "10213073", "METLNKID": "", "FEATTYPE": "POINT", "SECCLASS": "UNCLASSIFIED", "NAME": "HYDE COUNTY EMERGENCY OPERATIONS CENTER", "onemap_pro": "", "PHONE": "926-4374", "ADDRESS": "1223 MAIN STREET", "ADDRESS2": "", "CITY": "SWAN QUARTER", "STATE": "NC", "ZIP": "27885", "ZIPP4": "9756", "COUNTY": "HYDE", "FIPS": "37095", "DIRECTIONS": "LOCATED ON THE NORTHWEST SIDE OF MAIN STREET, 0.18 MILES SOUTHWEST OF THE T INTERSECTION OF MAIN STREET AND SWINDELL FOREST ROAD.", "EMERGTITLE": "", "EMERGPHONE": "", "EMERGEXT": "", "CONTDATE": "2007\/04\/03", "CONTHOW": "PHONE", "GEODATE": "2007\/04\/03", "GEOHOW": "MANUAL", "NAICSCODE": "922190", "NAICSDESCR": "EMERGENCY PLANNING AND MANAGEMENT OFFICES, GOVERNMENT", "GEOLINKID": "123632299", "SOURCE": "NCGIS", "X": -76.319111, "Y": 35.419753, "ST_VENDOR": "NAVTEQ", "ST_VERSION": "2006Q4", "GEOPREC": "BLOCKFACE", "PHONELOC": "NO", "QC_QA": "TGS", "EOC_ID": "49" }, "geometry": { "type": "Point", "coordinates": [ 853018.748701, 188513.090316 ] } }
,
{ "type": "Feature", "properties": { "ID": "10213087", "METLNKID": "", "FEATTYPE": "POINT", "SECCLASS": "UNCLASSIFIED", "NAME": "MADISON COUNTY EMERGENCY OPERATIONS CENTER", "onemap_pro": "", "PHONE": "649-3611", "ADDRESS": "158 HEALTH CARE LANE", "ADDRESS2": "", "CITY": "MARSHALL", "STATE": "NC", "ZIP": "28753", "ZIPP4": "6350", "COUNTY": "MADISON", "FIPS": "37115", "DIRECTIONS": "LOCATED ON THE SOUTH SIDE OF HEALTH CARE LANE, 0.07 MILES NORTHEAST OF THE T INTERSECTION OF HEALTH CARE LANE AND ROBERTS HILL ROAD.", "EMERGTITLE": "", "EMERGPHONE": "", "EMERGEXT": "", "CONTDATE": "2007\/04\/13", "CONTHOW": "PHONE", "GEODATE": "2007\/04\/13", "GEOHOW": "MANUAL", "NAICSCODE": "922190", "NAICSDESCR": "EMERGENCY PLANNING AND MANAGEMENT OFFICES, GOVERNMENT", "GEOLINKID": "102515851", "SOURCE": "NCGIS", "X": -82.695098, "Y": 35.814438, "ST_VENDOR": "NAVTEQ", "ST_VERSION": "2006Q4", "GEOPREC": "BLOCKFACE", "PHONELOC": "YES", "QC_QA": "TGS", "EOC_ID": "63" }, "geometry": { "type": "Point", "coordinates": [ 275762.386180, 235226.379063 ] } }
,
{ "type": "Feature", "properties": { "ID": "10213033", "METLNKID": "", "FEATTYPE": "POINT", "SECCLASS": "UNCLASSIFIED", "NAME": "CASWELL COUNTY EMERGENCY SERVICES", "onemap_pro": "", "PHONE": "694-5177", "ADDRESS": "208 COUNTY PARK ROAD", "ADDRESS2": "", "CITY": "YANCEYVILLE", "STATE": "NC", "ZIP": "27379", "ZIPP4": "9756", "COUNTY": "CASWELL", "FIPS": "37033", "DIRECTIONS": "LOCATED ON THE EAST SIDE OF COUNTY PARK ROAD, 0.06 MILES SOUTH OF THE T INTERSECTION OF COUNTY PARK ROAD AND UNITED STATES HIGHWAY 158.", "EMERGTITLE": "", "EMERGPHONE": "", "EMERGEXT": "", "CONTDATE": "2007\/04\/11", "CONTHOW": "PHONE", "GEODATE": "2007\/04\/11", "GEOHOW": "MANUAL", "NAICSCODE": "922190", "NAICSDESCR": "EMERGENCY PLANNING AND MANAGEMENT OFFICES, GOVERNMENT", "GEOLINKID": "102924801", "SOURCE": "NCGIS", "X": -79.333535, "Y": 36.406857, "ST_VENDOR": "NAVTEQ", "ST_VERSION": "2006Q4", "GEOPREC": "ONENTITY", "PHONELOC": "YES", "QC_QA": "TGS", "EOC_ID": "9" }, "geometry": { "type": "Point", "coordinates": [ 579681.492511, 294797.482863 ] } }
,
{ "type": "Feature", "properties": { "ID": "10213111", "METLNKID": "", "FEATTYPE": "POINT", "SECCLASS": "UNCLASSIFIED", "NAME": "NASH COUNTY EMERGENCY OPERATIONS CENTER", "onemap_pro": "", "PHONE": "459-9805", "ADDRESS": "120 WEST WASHINGTON STREET", "ADDRESS2": "", "CITY": "NASHVILLE", "STATE": "NC", "ZIP": "27856", "ZIPP4": "1354", "COUNTY": "NASH", "FIPS": "37127", "DIRECTIONS": "LOCATED ON THE NORTHEAST SIDE OF WEST WASHINGTON BETWEEN NORTH BODDIE STREET AND NORTH ALSTON STREET.", "EMERGTITLE": "", "EMERGPHONE": "", "EMERGEXT": "", "CONTDATE": "2007\/04\/05", "CONTHOW": "PHONE", "GEODATE": "2007\/04\/05", "GEOHOW": "MANUAL", "NAICSCODE": "922190", "NAICSDESCR": "EMERGENCY PLANNING AND MANAGEMENT OFFICES, GOVERNMENT", "GEOLINKID": "102399455", "SOURCE": "NCGIS", "X": -77.966867, "Y": 35.975208, "ST_VENDOR": "NAVTEQ", "ST_VERSION": "2006Q4", "GEOPREC": "ONENTITY", "PHONELOC": "YES", "QC_QA": "TGS", "EOC_ID": "87" }, "geometry": { "type": "Point", "coordinates": [ 702775.303825, 247334.783811 ] } }
,
{ "type": "Feature", "properties": { "ID": "10213057", "METLNKID": "", "FEATTYPE": "POINT", "SECCLASS": "UNCLASSIFIED", "NAME": "PAMLICO COUNTY EMERGENCY OPERATIONS CENTER-ALTERNATE", "onemap_pro": "", "PHONE": "745-4131", "ADDRESS": "202 MAIN STREET", "ADDRESS2": "COURTHOUSE", "CITY": "BAYBORO", "STATE": "NC", "ZIP": "28515", "ZIPP4": "", "COUNTY": "PAMLICO", "FIPS": "37137", "DIRECTIONS": "LOCATED ON THE NORTH SIDE OF MAIN STREET BETWEEN NORTHWEST 3RD STREET AND 2ND STREET.", "EMERGTITLE": "", "EMERGPHONE": "", "EMERGEXT": "", "CONTDATE": "2007\/04\/04", "CONTHOW": "PHONE", "GEODATE": "2007\/04\/04", "GEOHOW": "MANUAL", "NAICSCODE": "922190", "NAICSDESCR": "EMERGENCY PLANNING AND MANAGEMENT OFFICES, GOVERNMENT", "GEOLINKID": "102365621", "SOURCE": "NCGIS", "X": -76.770766, "Y": 35.143208, "ST_VENDOR": "NAVTEQ", "ST_VERSION": "2006Q4", "GEOPREC": "ONENTITY", "PHONELOC": "YES", "QC_QA": "TGS", "EOC_ID": "33" }, "geometry": { "type": "Point", "coordinates": [ 812706.133752, 156829.074158 ] } }
,
{ "type": "Feature", "properties": { "ID": "10213058", "METLNKID": "", "FEATTYPE": "POINT", "SECCLASS": "UNCLASSIFIED", "NAME": "PENDER COUNTY EMERGENCY OPERATIONS CENTER", "onemap_pro": "", "PHONE": "259-1210", "ADDRESS": "605 EAST FREMONT STREET", "ADDRESS2": "LAW ENFORCEMENT CENTER", "CITY": "BURGAW", "STATE": "NC", "ZIP": "28425", "ZIPP4": "5115", "COUNTY": "PENDER", "FIPS": "37141", "DIRECTIONS": "LOCATED ON THE SOUTHEAST SIDE OF EAST FREMONT STREET BETWEEN SOUTH BENNETT STREET AND SOUTH MCNEIL STREET.", "EMERGTITLE": "", "EMERGPHONE": "", "EMERGEXT": "", "CONTDATE": "2007\/04\/04", "CONTHOW": "PHONE", "GEODATE": "2007\/04\/04", "GEOHOW": "MANUAL", "NAICSCODE": "922190", "NAICSDESCR": "EMERGENCY PLANNING AND MANAGEMENT OFFICES, GOVERNMENT", "GEOLINKID": "102755024", "SOURCE": "NCGIS", "X": -77.918616, "Y": 34.551303, "ST_VENDOR": "NAVTEQ", "ST_VERSION": "2006Q4", "GEOPREC": "ONENTITY", "PHONELOC": "YES", "QC_QA": "TGS", "EOC_ID": "34" }, "geometry": { "type": "Point", "coordinates": [ 708847.353495, 89430.805168 ] } }
,
{ "type": "Feature", "properties": { "ID": "10217823", "METLNKID": "", "FEATTYPE": "POINT", "SECCLASS": "UNCLASSIFIED", "NAME": "PENDER COUNTY EMERGENCY OPERATIONS CENTER-ALTERNATE", "onemap_pro": "", "PHONE": "259-2151", "ADDRESS": "109 NORTH WALKER STREET", "ADDRESS2": "", "CITY": "BURGAW", "STATE": "NC", "ZIP": "28425", "ZIPP4": "5234", "COUNTY": "PENDER", "FIPS": "37141", "DIRECTIONS": "LOCATED ON THE WEST SIDE OF NORTH WALKER STREET BETWEEN EAST WILMINGTON STREET AND EAST BRIDGERS STREET.", "EMERGTITLE": "", "EMERGPHONE": "", "EMERGEXT": "", "CONTDATE": "2007\/04\/04", "CONTHOW": "PHONE", "GEODATE": "2007\/04\/04", "GEOHOW": "MANUAL", "NAICSCODE": "922190", "NAICSDESCR": "EMERGENCY PLANNING AND MANAGEMENT OFFICES, GOVERNMENT", "GEOLINKID": "22942964", "SOURCE": "TGS", "X": -77.925944, "Y": 34.552297, "ST_VENDOR": "NAVTEQ", "ST_VERSION": "2006Q4", "GEOPREC": "BLOCKFACE", "PHONELOC": "YES", "QC_QA": "TGS", "EOC_ID": "" }, "geometry": { "type": "Point", "coordinates": [ 708173.645462, 89533.819568 ] } }
,
{ "type": "Feature", "properties": { "ID": "10213099", "METLNKID": "", "FEATTYPE": "POINT", "SECCLASS": "UNCLASSIFIED", "NAME": "ROCKINGHAM COUNTY EMERGENCY SERVICES-EMERGENCY OPERATIONS CENTER", "onemap_pro": "", "PHONE": "634-3017", "ADDRESS": "335 COUNTY HOME ROAD", "ADDRESS2": "", "CITY": "REIDSVILLE", "STATE": "NC", "ZIP": "27320", "ZIPP4": "8453", "COUNTY": "ROCKINGHAM", "FIPS": "37157", "DIRECTIONS": "LOCATED ON THE NORTHWEST SIDE OF COUNTY HOME ROAD BETWEEN CHEROKEE CAMP ROAD AND STATE HIGHWAY 65.", "EMERGTITLE": "", "EMERGPHONE": "", "EMERGEXT": "", "CONTDATE": "2007\/03\/29", "CONTHOW": "PHONE", "GEODATE": "2007\/03\/29", "GEOHOW": "MANUAL", "NAICSCODE": "922190", "NAICSDESCR": "EMERGENCY PLANNING AND MANAGEMENT OFFICES, GOVERNMENT", "GEOLINKID": "102924293", "SOURCE": "NCGIS", "X": -79.747960, "Y": 36.390361, "ST_VENDOR": "NAVTEQ", "ST_VERSION": "2006Q4", "GEOPREC": "BLOCKFACE", "PHONELOC": "YES", "QC_QA": "TGS", "EOC_ID": "75" }, "geometry": { "type": "Point", "coordinates": [ 542492.233212, 293169.480557 ] } }
,
{ "type": "Feature", "properties": { "ID": "10213110", "METLNKID": "", "FEATTYPE": "POINT", "SECCLASS": "UNCLASSIFIED", "NAME": "WILSON COUNTY EMERGENCY OPERATIONS CENTER", "onemap_pro": "", "PHONE": "399-2830", "ADDRESS": "1817 GLENDALE DRIVE", "ADDRESS2": "", "CITY": "WILSON", "STATE": "NC", "ZIP": "27893", "ZIPP4": "4401", "COUNTY": "WILSON", "FIPS": "37195", "DIRECTIONS": "LOCATED ON THE EAST SIDE OF GLENDALE DRIVE BETWEEN WOOTEN BOULEVARD SOUTHWEST AND HORTON BOULEVARD SOUTHWEST.", "EMERGTITLE": "", "EMERGPHONE": "", "EMERGEXT": "", "CONTDATE": "2007\/03\/29", "CONTHOW": "PHONE", "GEODATE": "2007\/03\/29", "GEOHOW": "MANUAL", "NAICSCODE": "922190", "NAICSDESCR": "EMERGENCY PLANNING AND MANAGEMENT OFFICES, GOVERNMENT", "GEOLINKID": "102532716", "SOURCE": "NCGIS", "X": -77.945095, "Y": 35.715474, "ST_VENDOR": "NAVTEQ", "ST_VERSION": "2006Q4", "GEOPREC": "ONENTITY", "PHONELOC": "YES", "QC_QA": "TGS", "EOC_ID": "86" }, "geometry": { "type": "Point", "coordinates": [ 705045.010067, 218540.122920 ] } }
,
{ "type": "Feature", "properties": { "ID": "10213114", "METLNKID": "", "FEATTYPE": "POINT", "SECCLASS": "UNCLASSIFIED", "NAME": "GREENE COUNTY EMERGENCY SERVICES", "onemap_pro": "", "PHONE": "747-2544", "ADDRESS": "201 MARTIN LUTHER KING JUNIOR PARKWAY", "ADDRESS2": "", "CITY": "SNOW HILL", "STATE": "NC", "ZIP": "28580", "ZIPP4": "", "COUNTY": "GREENE", "FIPS": "37079", "DIRECTIONS": "LOCATED ON THE SOUTHEAST SIDE OF MARTIN LUTHER KING JUNIOR PARKWAY, BETWEEN INDUSTRIAL DRIVE AND PROFESSIONAL DRIVE.", "EMERGTITLE": "", "EMERGPHONE": "", "EMERGEXT": "", "CONTDATE": "2007\/04\/03", "CONTHOW": "PHONE", "GEODATE": "2007\/04\/03", "GEOHOW": "MANUAL", "NAICSCODE": "922190", "NAICSDESCR": "EMERGENCY PLANNING AND MANAGEMENT OFFICES, GOVERNMENT", "GEOLINKID": "116033885", "SOURCE": "NCGIS", "X": -77.682050, "Y": 35.454227, "ST_VENDOR": "NAVTEQ", "ST_VERSION": "2006Q4", "GEOPREC": "BLOCKFACE", "PHONELOC": "YES", "QC_QA": "TGS", "EOC_ID": "90" }, "geometry": { "type": "Point", "coordinates": [ 729227.835050, 189844.591373 ] } }
,
{ "type": "Feature", "properties": { "ID": "10217559", "METLNKID": "", "FEATTYPE": "POINT", "SECCLASS": "UNCLASSIFIED", "NAME": "HYDE COUNTY EMERGENCY OPERATIONS CENTER-ALTERNATE", "onemap_pro": "", "PHONE": "926-4374", "ADDRESS": "20472 UNITED STATES HIGHWAY 264 EAST", "ADDRESS2": "HIGH SCHOOL BAND ROOM", "CITY": "SWAN QUARTER", "STATE": "NC", "ZIP": "27885", "ZIPP4": "", "COUNTY": "HYDE", "FIPS": "37095", "DIRECTIONS": "LOCATED ON THE SOUTH SIDE OF UNITED STATES HIGHWAY 264 EAST, 0.13 MILES WEST OF THE T INTERSECTION OF UNITED STATES HIGHWAY 264 EAST AND JUNIPER BAY ROAD.", "EMERGTITLE": "", "EMERGPHONE": "", "EMERGEXT": "", "CONTDATE": "2007\/04\/03", "CONTHOW": "PHONE", "GEODATE": "2007\/04\/03", "GEOHOW": "MANUAL", "NAICSCODE": "922190", "NAICSDESCR": "EMERGENCY PLANNING AND MANAGEMENT OFFICES, GOVERNMENT", "GEOLINKID": "108634245", "SOURCE": "TGS", "X": -76.218692, "Y": 35.441845, "ST_VENDOR": "NAVTEQ", "ST_VERSION": "2006Q4", "GEOPREC": "BLOCKFACE", "PHONELOC": "NO", "QC_QA": "TGS", "EOC_ID": "" }, "geometry": { "type": "Point", "coordinates": [ 862065.530662, 191213.751054 ] } }
,
{ "type": "Feature", "properties": { "ID": "10213093", "METLNKID": "", "FEATTYPE": "POINT", "SECCLASS": "UNCLASSIFIED", "NAME": "ASHE COUNTY EMERGENCY MANAGEMENT", "onemap_pro": "", "PHONE": "219-2521", "ADDRESS": "150 GOVERNMENT CIRCLE", "ADDRESS2": "COURTHOUSE", "CITY": "JEFFERSON", "STATE": "NC", "ZIP": "28640", "ZIPP4": "9377", "COUNTY": "ASHE", "FIPS": "37009", "DIRECTIONS": "LOCATED ON THE SOUTH SIDE OF GOVERNMENT CIRCLE, 0.17 MILES SOUTHWEST OF THE T INTERSECTION OF GOVERNMENT CIRCLE AND STATE HIGHWAY 88.", "EMERGTITLE": "", "EMERGPHONE": "", "EMERGEXT": "", "CONTDATE": "2007\/04\/11", "CONTHOW": "PHONE", "GEODATE": "2007\/04\/11", "GEOHOW": "MANUAL", "NAICSCODE": "922190", "NAICSDESCR": "EMERGENCY PLANNING AND MANAGEMENT OFFICES, GOVERNMENT", "GEOLINKID": "127867423", "SOURCE": "NCGIS", "X": -81.459012, "Y": 36.418311, "ST_VENDOR": "NAVTEQ", "ST_VERSION": "2006Q4", "GEOPREC": "ONENTITY", "PHONELOC": "YES", "QC_QA": "TGS", "EOC_ID": "69" }, "geometry": { "type": "Point", "coordinates": [ 389069.340013, 298749.918066 ] } }
,
{ "type": "Feature", "properties": { "ID": "10213085", "METLNKID": "", "FEATTYPE": "POINT", "SECCLASS": "UNCLASSIFIED", "NAME": "SWAIN COUNTY EMERGENCY OPERATIONS CENTER", "onemap_pro": "", "PHONE": "488-6021", "ADDRESS": "1422 UNITED STATES HIGHWAY 19 SOUTH", "ADDRESS2": "", "CITY": "BRYSON CITY", "STATE": "NC", "ZIP": "28713", "ZIPP4": "", "COUNTY": "SWAIN", "FIPS": "37173", "DIRECTIONS": "LOCATED ON THE SOUTHWEST SIDE OF UNITED STATES HIGHWAY 19 SOUTH, BETWEEN OLD UNITED STATES HIGHWAY 19 AND WILDWOOD ROAD.", "EMERGTITLE": "", "EMERGPHONE": "", "EMERGEXT": "", "CONTDATE": "2007\/04\/04", "CONTHOW": "PHONE", "GEODATE": "2007\/04\/04", "GEOHOW": "MANUAL", "NAICSCODE": "922190", "NAICSDESCR": "EMERGENCY PLANNING AND MANAGEMENT OFFICES, GOVERNMENT", "GEOLINKID": "102399130", "SOURCE": "NCGIS", "X": -83.465123, "Y": 35.415122, "ST_VENDOR": "NAVTEQ", "ST_VERSION": "2006Q4", "GEOPREC": "BLOCKFACE", "PHONELOC": "YES", "QC_QA": "TGS", "EOC_ID": "61" }, "geometry": { "type": "Point", "coordinates": [ 204244.387009, 193830.234897 ] } }
,
{ "type": "Feature", "properties": { "ID": "10213121", "METLNKID": "", "FEATTYPE": "POINT", "SECCLASS": "UNCLASSIFIED", "NAME": "CHOWAN COUNTY EMERGENCY OPERATIONS CENTER", "onemap_pro": "", "PHONE": "482-4365", "ADDRESS": "208 WEST HICKS STREET", "ADDRESS2": "", "CITY": "EDENTON", "STATE": "NC", "ZIP": "27932", "ZIPP4": "1865", "COUNTY": "CHOWAN", "FIPS": "37041", "DIRECTIONS": "LOCATED ON THE NORTHEAST SIDE OF WEST HICKS STREET, 0.13 MILES NORTHWEST OF THE INTERSECTION OF WEST HICKS STREET AND NORTH GRANVILLE STREET.", "EMERGTITLE": "", "EMERGPHONE": "", "EMERGEXT": "", "CONTDATE": "2007\/04\/02", "CONTHOW": "PHONE", "GEODATE": "2007\/04\/02", "GEOHOW": "MANUAL", "NAICSCODE": "922190", "NAICSDESCR": "EMERGENCY PLANNING AND MANAGEMENT OFFICES, GOVERNMENT", "GEOLINKID": "123635166", "SOURCE": "NCGIS", "X": -76.610813, "Y": 36.068531, "ST_VENDOR": "NAVTEQ", "ST_VERSION": "2006Q4", "GEOPREC": "BLOCKFACE", "PHONELOC": "YES", "QC_QA": "TGS", "EOC_ID": "97" }, "geometry": { "type": "Point", "coordinates": [ 824806.274819, 259794.508622 ] } }
,
{ "type": "Feature", "properties": { "ID": "10220287", "METLNKID": "", "FEATTYPE": "POINT", "SECCLASS": "UNCLASSIFIED", "NAME": "MADISON COUNTY EMERGENCY OPERATIONS CENTER-ALTERNATE", "onemap_pro": "", "PHONE": "649-3611", "ADDRESS": "STATE HIGHWAY 213", "ADDRESS2": "MARS COUNTY COLLEGE-OLD MEMORIAL LIBRARY", "CITY": "MARS HILL", "STATE": "NC", "ZIP": "28754", "ZIPP4": "", "COUNTY": "MADISON", "FIPS": "37115", "DIRECTIONS": "LOCATED ON THE SOUTH SIDE OF STATE HIGHWAY 213 BETWEEN CAMPUS AND DORMITORY ROAD.", "EMERGTITLE": "", "EMERGPHONE": "", "EMERGEXT": "", "CONTDATE": "2007\/04\/16", "CONTHOW": "PHONE", "GEODATE": "2007\/04\/16", "GEOHOW": "MANUAL", "NAICSCODE": "922190", "NAICSDESCR": "EMERGENCY PLANNING AND MANAGEMENT OFFICES, GOVERNMENT", "GEOLINKID": "102951363", "SOURCE": "TGS", "X": -82.551439, "Y": 35.826130, "ST_VENDOR": "NAVTEQ", "ST_VERSION": "2006Q4", "GEOPREC": "BLOCKFACE", "PHONELOC": "NO", "QC_QA": "TGS", "EOC_ID": "" }, "geometry": { "type": "Point", "coordinates": [ 288782.226704, 236049.052472 ] } }

]
}
