{
"type": "FeatureCollection",
"features": [
{ "type": "Feature", "properties": { "ID": "10275649", "METLNKID": "", "FEATTYPE": "POINT", "SECCLASS": "UNCLASSIFIED", "NAME": "SCHOOL OF COMMUNICATION ARTS", "AREA": "919", "PHONE": "488-8500", "ADDRESS": "3000 WAKEFIELD CROSSING DRIVE", "ADDRESS2": "", "CITY": "RALEIGH", "STATE": "NC", "ZIP": "27614", "ZIPP4": "", "COUNTY": "WAKE", "FIPS": "37183", "DIRECTIONS": "", "EMERGTITLE": "", "EMERGPHONE": "", "EMERGEXT": "", "CONTDATE": "0000\/00\/00", "CONTHOW": "", "GEODATE": "2007\/06\/26", "GEOHOW": "AUTO", "NAICSCODE": "611610", "NAICSDESCR": "FINE ARTS SCHOOLS (EXCEPT ACADEMIC)", "GEOLINKID": "112129750", "X": -78.556242, "Y": 35.942785, "ST_VENDOR": "NAVTEQ", "ST_VERSION": "2006Q4", "GEOPREC": "BLOCKFACE", "PHONELOC": "", "QC_QA": "", "DEGREE": "ASSOCIATE'S DEGREE", "ENROLL": 298 }, "geometry": { "type": "Point", "coordinates": [ 649638.637313, 243342.015331 ] } }
,
{ "type": "Feature", "properties": { "ID": "10274288", "METLNKID": "", "FEATTYPE": "POINT", "SECCLASS": "UNCLASSIFIED", "NAME": "WILKES COMMUNITY COLLEGE", "AREA": "336", "PHONE": "838-6100", "ADDRESS": "1328 SOUTH COLLEGIATE DR", "ADDRESS2": "", "CITY": "WILKESBORO", "STATE": "NC", "ZIP": "28697", "ZIPP4": "2102", "COUNTY": "WILKES", "FIPS": "37193", "DIRECTIONS": "", "EMERGTITLE": "", "EMERGPHONE": "", "EMERGEXT": "", "CONTDATE": "0000\/00\/00", "CONTHOW": "", "GEODATE": "2007\/06\/26", "GEOHOW": "AUTO", "NAICSCODE": "611210", "NAICSDESCR": "COMMUNITY COLLEGES", "GEOLINKID": "124774949", "X": -81.180501, "Y": 36.138588, "ST_VENDOR": "NAVTEQ", "ST_VERSION": "2006Q4", "GEOPREC": "BLOCKFACE", "PHONELOC": "", "QC_QA": "", "DEGREE": "ASSOCIATE'S DEGREE", "ENROLL": 2617 }, "geometry": { "type": "Point", "coordinates": [ 413361.060695, 267133.376692 ] } }
,
{ "type": "Feature", "properties": { "ID": "10274275", "METLNKID": "", "FEATTYPE": "POINT", "SECCLASS": "UNCLASSIFIED", "NAME": "SANDHILLS COMMUNITY COLLEGE", "AREA": "910", "PHONE": "692-6185", "ADDRESS": "3395 AIRPORT RD", "ADDRESS2": "", "CITY": "PINEHURST", "STATE": "NC", "ZIP": "28374", "ZIPP4": "8778", "COUNTY": "MOORE", "FIPS": "37125", "DIRECTIONS": "", "EMERGTITLE": "", "EMERGPHONE": "", "EMERGEXT": "", "CONTDATE": "0000\/00\/00", "CONTHOW": "", "GEODATE": "2007\/06\/26", "GEOHOW": "AUTO", "NAICSCODE": "611210", "NAICSDESCR": "COMMUNITY COLLEGES", "GEOLINKID": "125043330", "X": -79.408172, "Y": 35.222386, "ST_VENDOR": "NAVTEQ", "ST_VERSION": "2006Q4", "GEOPREC": "BLOCKFACE", "PHONELOC": "", "QC_QA": "", "DEGREE": "ASSOCIATE'S DEGREE", "ENROLL": 3636 }, "geometry": { "type": "Point", "coordinates": [ 572445.875034, 163408.070685 ] } }
,
{ "type": "Feature", "properties": { "ID": "10274264", "METLNKID": "", "FEATTYPE": "POINT", "SECCLASS": "UNCLASSIFIED", "NAME": "PIEDMONT BAPTIST COLLEGE", "AREA": "336", "PHONE": "725-8344", "ADDRESS": "716 FRANKLIN ST", "ADDRESS2": "", "CITY": "WINSTON SALEM", "STATE": "NC", "ZIP": "27101", "ZIPP4": "5133", "COUNTY": "FORSYTH", "FIPS": "37067", "DIRECTIONS": "", "EMERGTITLE": "", "EMERGPHONE": "", "EMERGEXT": "", "CONTDATE": "0000\/00\/00", "CONTHOW": "", "GEODATE": "2007\/06\/26", "GEOHOW": "AUTO", "NAICSCODE": "611310", "NAICSDESCR": "THEOLOGICAL SEMINARIES OFFERING BACCALAUREATE OR GRADUATE DEGREES", "GEOLINKID": "17057030", "X": -80.249845, "Y": 36.087855, "ST_VENDOR": "NAVTEQ", "ST_VERSION": "2006Q4", "GEOPREC": "BLOCKFACE", "PHONELOC": "", "QC_QA": "", "DEGREE": "MASTER'S DEGREE", "ENROLL": 378 }, "geometry": { "type": "Point", "coordinates": [ 497041.036114, 260057.341661 ] } }
,
{ "type": "Feature", "properties": { "ID": "10274259", "METLNKID": "", "FEATTYPE": "POINT", "SECCLASS": "UNCLASSIFIED", "NAME": "UNIVERSITY OF NORTH CAROLINA-WILMINGTON", "AREA": "910", "PHONE": "962-3000", "ADDRESS": "601 SOUTH COLLEGE ROAD", "ADDRESS2": "", "CITY": "WILMINGTON", "STATE": "NC", "ZIP": "28403", "ZIPP4": "3201", "COUNTY": "NEW HANOVER", "FIPS": "37129", "DIRECTIONS": "", "EMERGTITLE": "", "EMERGPHONE": "", "EMERGEXT": "", "CONTDATE": "0000\/00\/00", "CONTHOW": "", "GEODATE": "2007\/06\/26", "GEOHOW": "AUTO", "NAICSCODE": "611310", "NAICSDESCR": "UNIVERSITIES", "GEOLINKID": "125444152", "X": -77.879139, "Y": 34.226753, "ST_VENDOR": "NAVTEQ", "ST_VERSION": "2006Q4", "GEOPREC": "BLOCKFACE", "PHONELOC": "", "QC_QA": "", "DEGREE": "DOCTOR'S DEGREE", "ENROLL": 11839 }, "geometry": { "type": "Point", "coordinates": [ 712876.801185, 53471.695894 ] } }
,
{ "type": "Feature", "properties": { "ID": "10274250", "METLNKID": "", "FEATTYPE": "POINT", "SECCLASS": "UNCLASSIFIED", "NAME": "NASH COMMUNITY COLLEGE", "AREA": "252", "PHONE": "443-4011", "ADDRESS": "522 N. OLD CARRIAGE ROAD", "ADDRESS2": "", "CITY": "ROCKY MOUNT", "STATE": "NC", "ZIP": "27804", "ZIPP4": "9708", "COUNTY": "NASH", "FIPS": "37127", "DIRECTIONS": "", "EMERGTITLE": "", "EMERGPHONE": "", "EMERGEXT": "", "CONTDATE": "0000\/00\/00", "CONTHOW": "", "GEODATE": "2007\/06\/26", "GEOHOW": "AUTO", "NAICSCODE": "611210", "NAICSDESCR": "COMMUNITY COLLEGES", "GEOLINKID": "125363756", "X": -77.905638, "Y": 36.011414, "ST_VENDOR": "NAVTEQ", "ST_VERSION": "2006Q4", "GEOPREC": "BLOCKFACE", "PHONELOC": "", "QC_QA": "", "DEGREE": "AT LEAST 2, BUT LESS THAN 4 ACADEMIC YRS", "ENROLL": 2491 }, "geometry": { "type": "Point", "coordinates": [ 708252.816605, 251410.893767 ] } }
,
{ "type": "Feature", "properties": { "ID": "10274247", "METLNKID": "", "FEATTYPE": "POINT", "SECCLASS": "UNCLASSIFIED", "NAME": "MITCHELL COMMUNITY COLLEGE", "AREA": "704", "PHONE": "878-3200", "ADDRESS": "500 W BROAD STREET", "ADDRESS2": "", "CITY": "STATESVILLE", "STATE": "NC", "ZIP": "28677", "ZIPP4": "5264", "COUNTY": "IREDELL", "FIPS": "37097", "DIRECTIONS": "", "EMERGTITLE": "", "EMERGPHONE": "", "EMERGEXT": "", "CONTDATE": "0000\/00\/00", "CONTHOW": "", "GEODATE": "2007\/06\/26", "GEOHOW": "AUTO", "NAICSCODE": "611210", "NAICSDESCR": "COMMUNITY COLLEGES", "GEOLINKID": "102525536", "X": -80.893797, "Y": 35.782961, "ST_VENDOR": "NAVTEQ", "ST_VERSION": "2006Q4", "GEOPREC": "BLOCKFACE", "PHONELOC": "", "QC_QA": "", "DEGREE": "ASSOCIATE'S DEGREE", "ENROLL": 2283 }, "geometry": { "type": "Point", "coordinates": [ 438407.722671, 227153.263086 ] } }
,
{ "type": "Feature", "properties": { "ID": "10274243", "METLNKID": "", "FEATTYPE": "POINT", "SECCLASS": "UNCLASSIFIED", "NAME": "MARTIN COMMUNITY COLLEGE", "AREA": "252", "PHONE": "792-1521", "ADDRESS": "1161 KEHUKEE PK RD", "ADDRESS2": "", "CITY": "WILLIAMSTON", "STATE": "NC", "ZIP": "27892", "ZIPP4": "8307", "COUNTY": "MARTIN", "FIPS": "37117", "DIRECTIONS": "", "EMERGTITLE": "", "EMERGPHONE": "", "EMERGEXT": "", "CONTDATE": "0000\/00\/00", "CONTHOW": "", "GEODATE": "2007\/06\/26", "GEOHOW": "AUTO", "NAICSCODE": "611210", "NAICSDESCR": "COMMUNITY COLLEGES", "GEOLINKID": "125356749", "X": -77.095594, "Y": 35.837990, "ST_VENDOR": "NAVTEQ", "ST_VERSION": "2006Q4", "GEOPREC": "BLOCKFACE", "PHONELOC": "", "QC_QA": "", "DEGREE": "AT LEAST 2, BUT LESS THAN 4 ACADEMIC YRS", "ENROLL": 956 }, "geometry": { "type": "Point", "coordinates": [ 781636.551750, 233275.778219 ] } }
,
{ "type": "Feature", "properties": { "ID": "10274242", "METLNKID": "", "FEATTYPE": "POINT", "SECCLASS": "UNCLASSIFIED", "NAME": "LOUISBURG COLLEGE", "AREA": "919", "PHONE": "496-2521", "ADDRESS": "501 N. MAIN ST.", "ADDRESS2": "", "CITY": "LOUISBURG", "STATE": "NC", "ZIP": "27549", "ZIPP4": "2335", "COUNTY": "FRANKLIN", "FIPS": "37069", "DIRECTIONS": "", "EMERGTITLE": "", "EMERGPHONE": "", "EMERGEXT": "", "CONTDATE": "0000\/00\/00", "CONTHOW": "", "GEODATE": "2007\/06\/26", "GEOHOW": "AUTO", "NAICSCODE": "611310", "NAICSDESCR": "COLLEGES (EXCEPT JUNIOR COLLEGES)", "GEOLINKID": "102367056", "X": -78.297915, "Y": 36.103876, "ST_VENDOR": "NAVTEQ", "ST_VERSION": "2006Q4", "GEOPREC": "BLOCKFACE", "PHONELOC": "", "QC_QA": "", "DEGREE": "ASSOCIATE'S DEGREE", "ENROLL": 733 }, "geometry": { "type": "Point", "coordinates": [ 672819.121054, 261350.047230 ] } }
,
{ "type": "Feature", "properties": { "ID": "10274238", "METLNKID": "", "FEATTYPE": "POINT", "SECCLASS": "UNCLASSIFIED", "NAME": "JOHN WESLEY COLLEGE", "AREA": "336", "PHONE": "889-2262", "ADDRESS": "2314 N CENTENNIAL ST", "ADDRESS2": "", "CITY": "HIGH POINT", "STATE": "NC", "ZIP": "27265", "ZIPP4": "3136", "COUNTY": "GUILFORD", "FIPS": "37081", "DIRECTIONS": "", "EMERGTITLE": "", "EMERGPHONE": "", "EMERGEXT": "", "CONTDATE": "0000\/00\/00", "CONTHOW": "", "GEODATE": "2007\/06\/26", "GEOHOW": "AUTO", "NAICSCODE": "611310", "NAICSDESCR": "COLLEGES (EXCEPT JUNIOR COLLEGES)", "GEOLINKID": "17073508", "X": -79.999577, "Y": 35.993232, "ST_VENDOR": "NAVTEQ", "ST_VERSION": "2006Q4", "GEOPREC": "BLOCKFACE", "PHONELOC": "", "QC_QA": "", "DEGREE": "BACHELOR'S DEGREE", "ENROLL": 140 }, "geometry": { "type": "Point", "coordinates": [ 519473.422768, 249303.589177 ] } }
,
{ "type": "Feature", "properties": { "ID": "10274225", "METLNKID": "", "FEATTYPE": "POINT", "SECCLASS": "UNCLASSIFIED", "NAME": "ELIZABETH CITY STATE UNIVERSITY", "AREA": "252", "PHONE": "335-3400", "ADDRESS": "1704 WEEKSVILLE RD", "ADDRESS2": "", "CITY": "ELIZABETH CITY", "STATE": "NC", "ZIP": "27909", "ZIPP4": "7806", "COUNTY": "PASQUOTANK", "FIPS": "37139", "DIRECTIONS": "", "EMERGTITLE": "", "EMERGPHONE": "", "EMERGEXT": "", "CONTDATE": "0000\/00\/00", "CONTHOW": "", "GEODATE": "2007\/06\/26", "GEOHOW": "AUTO", "NAICSCODE": "611310", "NAICSDESCR": "UNIVERSITIES", "GEOLINKID": "90771871", "X": -76.194563, "Y": 36.263780, "ST_VENDOR": "NAVTEQ", "ST_VERSION": "2006Q4", "GEOPREC": "BLOCKFACE", "PHONELOC": "", "QC_QA": "", "DEGREE": "MASTER'S DEGREE", "ENROLL": 2664 }, "geometry": { "type": "Point", "coordinates": [ 861678.360399, 282432.074201 ] } }
,
{ "type": "Feature", "properties": { "ID": "10274210", "METLNKID": "", "FEATTYPE": "POINT", "SECCLASS": "UNCLASSIFIED", "NAME": "CALDWELL COMMUNITY COLLEGE AND TECHNICAL INSTITUTE", "AREA": "828", "PHONE": "726-2200", "ADDRESS": "2855 HICKORY BLVD.", "ADDRESS2": "", "CITY": "HUDSON", "STATE": "NC", "ZIP": "28638", "ZIPP4": "2672", "COUNTY": "CALDWELL", "FIPS": "37027", "DIRECTIONS": "", "EMERGTITLE": "", "EMERGPHONE": "", "EMERGEXT": "", "CONTDATE": "0000\/00\/00", "CONTHOW": "", "GEODATE": "2007\/06\/26", "GEOHOW": "AUTO", "NAICSCODE": "61151", "NAICSDESCR": "TECHNICAL AND TRADE SCHOOLS", "GEOLINKID": "125097710", "X": -81.482313, "Y": 35.853826, "ST_VENDOR": "NAVTEQ", "ST_VERSION": "2006Q4", "GEOPREC": "BLOCKFACE", "PHONELOC": "", "QC_QA": "", "DEGREE": "ASSOCIATE'S DEGREE", "ENROLL": 3744 }, "geometry": { "type": "Point", "coordinates": [ 385413.961626, 236185.656357 ] } }
,
{ "type": "Feature", "properties": { "ID": "10272142", "METLNKID": "", "FEATTYPE": "POINT", "SECCLASS": "UNCLASSIFIED", "NAME": "MOUNT OLIVE COLLEGE", "AREA": "919", "PHONE": "658-2502", "ADDRESS": "634 HENDERSON ST", "ADDRESS2": "", "CITY": "MOUNT OLIVE", "STATE": "NC", "ZIP": "28365", "ZIPP4": "1263", "COUNTY": "WAYNE", "FIPS": "37191", "DIRECTIONS": "", "EMERGTITLE": "", "EMERGPHONE": "", "EMERGEXT": "", "CONTDATE": "0000\/00\/00", "CONTHOW": "", "GEODATE": "2007\/06\/26", "GEOHOW": "AUTO", "NAICSCODE": "611310", "NAICSDESCR": "COLLEGES (EXCEPT JUNIOR COLLEGES)", "GEOLINKID": "102874146", "X": -78.068478, "Y": 35.203774, "ST_VENDOR": "NAVTEQ", "ST_VERSION": "2006Q4", "GEOPREC": "BLOCKFACE", "PHONELOC": "", "QC_QA": "", "DEGREE": "BACHELOR'S DEGREE", "ENROLL": 2830 }, "geometry": { "type": "Point", "coordinates": [ 694414.822052, 161664.969613 ] } }
,
{ "type": "Feature", "properties": { "ID": "10272140", "METLNKID": "", "FEATTYPE": "POINT", "SECCLASS": "UNCLASSIFIED", "NAME": "SOUTH COLLEGE-ASHEVILLE", "AREA": "828", "PHONE": "252-2486", "ADDRESS": "1567 PATTON AVE", "ADDRESS2": "", "CITY": "ASHEVILLE", "STATE": "NC", "ZIP": "28806", "ZIPP4": "1748", "COUNTY": "BUNCOMBE", "FIPS": "37021", "DIRECTIONS": "", "EMERGTITLE": "", "EMERGPHONE": "", "EMERGEXT": "", "CONTDATE": "0000\/00\/00", "CONTHOW": "", "GEODATE": "2007\/06\/26", "GEOHOW": "AUTO", "NAICSCODE": "611310", "NAICSDESCR": "COLLEGES (EXCEPT JUNIOR COLLEGES)", "GEOLINKID": "124716897", "X": -82.614842, "Y": 35.574851, "ST_VENDOR": "NAVTEQ", "ST_VERSION": "2006Q4", "GEOPREC": "BLOCKFACE", "PHONELOC": "", "QC_QA": "", "DEGREE": "BACHELOR'S DEGREE", "ENROLL": 109 }, "geometry": { "type": "Point", "coordinates": [ 282042.320743, 208396.725504 ] } }
,
{ "type": "Feature", "properties": { "ID": "10272188", "METLNKID": "", "FEATTYPE": "POINT", "SECCLASS": "UNCLASSIFIED", "NAME": "SOUTHWESTERN COMMUNITY COLLEGE", "AREA": "828", "PHONE": "586-4091", "ADDRESS": "447 COLLEGE DR", "ADDRESS2": "", "CITY": "SYLVA", "STATE": "NC", "ZIP": "28779", "ZIPP4": "8581", "COUNTY": "JACKSON", "FIPS": "37099", "DIRECTIONS": "", "EMERGTITLE": "", "EMERGPHONE": "", "EMERGEXT": "", "CONTDATE": "0000\/00\/00", "CONTHOW": "", "GEODATE": "2007\/06\/26", "GEOHOW": "AUTO", "NAICSCODE": "611210", "NAICSDESCR": "COMMUNITY COLLEGES", "GEOLINKID": "124770800", "X": -83.204525, "Y": 35.350378, "ST_VENDOR": "NAVTEQ", "ST_VERSION": "2006Q4", "GEOPREC": "BLOCKFACE", "PHONELOC": "", "QC_QA": "", "DEGREE": "ASSOCIATE'S DEGREE", "ENROLL": 1925 }, "geometry": { "type": "Point", "coordinates": [ 227583.479393, 185621.270317 ] } }
,
{ "type": "Feature", "properties": { "ID": "10272186", "METLNKID": "", "FEATTYPE": "POINT", "SECCLASS": "UNCLASSIFIED", "NAME": "GUILFORD COLLEGE", "AREA": "336", "PHONE": "316-2000", "ADDRESS": "5800 W FRIENDLY AVE", "ADDRESS2": "", "CITY": "GREENSBORO", "STATE": "NC", "ZIP": "27410", "ZIPP4": "4108", "COUNTY": "GUILFORD", "FIPS": "37081", "DIRECTIONS": "", "EMERGTITLE": "", "EMERGPHONE": "", "EMERGEXT": "", "CONTDATE": "0000\/00\/00", "CONTHOW": "", "GEODATE": "2007\/06\/26", "GEOHOW": "AUTO", "NAICSCODE": "611310", "NAICSDESCR": "COLLEGES (EXCEPT JUNIOR COLLEGES)", "GEOLINKID": "17057319", "X": -79.888446, "Y": 36.090097, "ST_VENDOR": "NAVTEQ", "ST_VERSION": "2006Q4", "GEOPREC": "BLOCKFACE", "PHONELOC": "", "QC_QA": "", "DEGREE": "BACHELOR'S DEGREE", "ENROLL": 2682 }, "geometry": { "type": "Point", "coordinates": [ 529589.535026, 259955.583311 ] } }
,
{ "type": "Feature", "properties": { "ID": "10275906", "METLNKID": "", "FEATTYPE": "POINT", "SECCLASS": "UNCLASSIFIED", "NAME": "UNIVERSITY OF PHOENIX-CHARLOTTE CAMPUS", "AREA": "704", "PHONE": "504-5409", "ADDRESS": "3800 ARCO CORPORATE DRIVE, SUITE 100", "ADDRESS2": "", "CITY": "CHARLOTTE", "STATE": "NC", "ZIP": "28273", "ZIPP4": "3438", "COUNTY": "MECKLENBURG", "FIPS": "37119", "DIRECTIONS": "", "EMERGTITLE": "", "EMERGPHONE": "", "EMERGEXT": "", "CONTDATE": "0000\/00\/00", "CONTHOW": "", "GEODATE": "2007\/06\/26", "GEOHOW": "AUTO", "NAICSCODE": "611310", "NAICSDESCR": "UNIVERSITIES", "GEOLINKID": "125488667", "X": -80.947840, "Y": 35.151485, "ST_VENDOR": "NAVTEQ", "ST_VERSION": "2006Q4", "GEOPREC": "BLOCKFACE", "PHONELOC": "", "QC_QA": "", "DEGREE": "MASTER'S DEGREE", "ENROLL": 1301 }, "geometry": { "type": "Point", "coordinates": [ 432148.522697, 157207.675557 ] } }
,
{ "type": "Feature", "properties": { "ID": "10275847", "METLNKID": "", "FEATTYPE": "POINT", "SECCLASS": "UNCLASSIFIED", "NAME": "APEX SCHOOL OF THEOLOGY", "AREA": "919", "PHONE": "572-1625", "ADDRESS": "5104 REVERE ROAD", "ADDRESS2": "", "CITY": "DURHAM", "STATE": "NC", "ZIP": "27713", "ZIPP4": "2421", "COUNTY": "DURHAM", "FIPS": "37063", "DIRECTIONS": "", "EMERGTITLE": "", "EMERGPHONE": "", "EMERGEXT": "", "CONTDATE": "0000\/00\/00", "CONTHOW": "", "GEODATE": "2007\/06\/26", "GEOHOW": "AUTO", "NAICSCODE": "611310", "NAICSDESCR": "THEOLOGICAL SEMINARIES OFFERING BACCALAUREATE OR GRADUATE DEGREES", "GEOLINKID": "17097863", "X": -78.910800, "Y": 35.894803, "ST_VENDOR": "NAVTEQ", "ST_VERSION": "2006Q4", "GEOPREC": "BLOCKFACE", "PHONELOC": "", "QC_QA": "", "DEGREE": "MASTER'S DEGREE", "ENROLL": 73 }, "geometry": { "type": "Point", "coordinates": [ 617653.955691, 237932.465293 ] } }
,
{ "type": "Feature", "properties": { "ID": "10275498", "METLNKID": "", "FEATTYPE": "POINT", "SECCLASS": "UNCLASSIFIED", "NAME": "KING'S COLLEGE", "AREA": "704", "PHONE": "372-0266", "ADDRESS": "322 LAMAR AVENUE", "ADDRESS2": "", "CITY": "CHARLOTTE", "STATE": "NC", "ZIP": "28204", "ZIPP4": "2436", "COUNTY": "MECKLENBURG", "FIPS": "37119", "DIRECTIONS": "", "EMERGTITLE": "", "EMERGPHONE": "", "EMERGEXT": "", "CONTDATE": "0000\/00\/00", "CONTHOW": "", "GEODATE": "2007\/06\/26", "GEOHOW": "AUTO", "NAICSCODE": "611310", "NAICSDESCR": "COLLEGES (EXCEPT JUNIOR COLLEGES)", "GEOLINKID": "28229911", "X": -80.822453, "Y": 35.213265, "ST_VENDOR": "NAVTEQ", "ST_VERSION": "2006Q4", "GEOPREC": "BLOCKFACE", "PHONELOC": "", "QC_QA": "", "DEGREE": "AT LEAST 2, BUT LESS THAN 4 ACADEMIC YRS", "ENROLL": 515 }, "geometry": { "type": "Point", "coordinates": [ 443696.017367, 163842.819948 ] } }
,
{ "type": "Feature", "properties": { "ID": "10274284", "METLNKID": "", "FEATTYPE": "POINT", "SECCLASS": "UNCLASSIFIED", "NAME": "WAKE TECHNICAL COMMUNITY COLLEGE", "AREA": "919", "PHONE": "662-3400", "ADDRESS": "9101 FAYETTEVILLE ROAD", "ADDRESS2": "", "CITY": "RALEIGH", "STATE": "NC", "ZIP": "27603", "ZIPP4": "5655", "COUNTY": "WAKE", "FIPS": "37183", "DIRECTIONS": "", "EMERGTITLE": "", "EMERGPHONE": "", "EMERGEXT": "", "CONTDATE": "0000\/00\/00", "CONTHOW": "", "GEODATE": "2007\/06\/26", "GEOHOW": "AUTO", "NAICSCODE": "61151", "NAICSDESCR": "TECHNICAL AND TRADE SCHOOLS", "GEOLINKID": "109888226", "X": -78.706852, "Y": 35.650636, "ST_VENDOR": "NAVTEQ", "ST_VERSION": "2006Q4", "GEOPREC": "BLOCKFACE", "PHONELOC": "", "QC_QA": "", "DEGREE": "ASSOCIATE'S DEGREE", "ENROLL": 11832 }, "geometry": { "type": "Point", "coordinates": [ 636145.836150, 210878.918104 ] } }
,
{ "type": "Feature", "properties": { "ID": "10274283", "METLNKID": "", "FEATTYPE": "POINT", "SECCLASS": "UNCLASSIFIED", "NAME": "WAKE FOREST UNIVERSITY", "AREA": "336", "PHONE": "758-5255", "ADDRESS": "1834 WAKE FOREST ROAD", "ADDRESS2": "", "CITY": "WINSTON SALEM", "STATE": "NC", "ZIP": "27106", "ZIPP4": "", "COUNTY": "FORSYTH", "FIPS": "37067", "DIRECTIONS": "", "EMERGTITLE": "", "EMERGPHONE": "", "EMERGEXT": "", "CONTDATE": "0000\/00\/00", "CONTHOW": "", "GEODATE": "2007\/06\/26", "GEOHOW": "AUTO", "NAICSCODE": "611310", "NAICSDESCR": "UNIVERSITIES", "GEOLINKID": "17046884", "X": -80.274062, "Y": 36.137116, "ST_VENDOR": "NAVTEQ", "ST_VERSION": "2006Q4", "GEOPREC": "BLOCKFACE", "PHONELOC": "", "QC_QA": "", "DEGREE": "DOCTOR'S DEGREE", "ENROLL": 6716 }, "geometry": { "type": "Point", "coordinates": [ 494930.385697, 265550.597994 ] } }
,
{ "type": "Feature", "properties": { "ID": "10274268", "METLNKID": "", "FEATTYPE": "POINT", "SECCLASS": "UNCLASSIFIED", "NAME": "ROANOKE BIBLE COLLEGE", "AREA": "252", "PHONE": "334-2070", "ADDRESS": "715 N POINDEXTER ST", "ADDRESS2": "", "CITY": "ELIZABETH CITY", "STATE": "NC", "ZIP": "27909", "ZIPP4": "4054", "COUNTY": "PASQUOTANK", "FIPS": "37139", "DIRECTIONS": "", "EMERGTITLE": "", "EMERGPHONE": "", "EMERGEXT": "", "CONTDATE": "0000\/00\/00", "CONTHOW": "", "GEODATE": "2007\/06\/26", "GEOHOW": "AUTO", "NAICSCODE": "611310", "NAICSDESCR": "THEOLOGICAL SEMINARIES OFFERING BACCALAUREATE OR GRADUATE DEGREES", "GEOLINKID": "90912270", "X": -76.217656, "Y": 36.304126, "ST_VENDOR": "NAVTEQ", "ST_VERSION": "2006Q4", "GEOPREC": "BLOCKFACE", "PHONELOC": "", "QC_QA": "", "DEGREE": "BACHELOR'S DEGREE", "ENROLL": 182 }, "geometry": { "type": "Point", "coordinates": [ 859478.477212, 286848.991553 ] } }
,
{ "type": "Feature", "properties": { "ID": "10274261", "METLNKID": "", "FEATTYPE": "POINT", "SECCLASS": "UNCLASSIFIED", "NAME": "PEACE COLLEGE", "AREA": "919", "PHONE": "508-2000", "ADDRESS": "15 E PEACE ST", "ADDRESS2": "", "CITY": "RALEIGH", "STATE": "NC", "ZIP": "27604", "ZIPP4": "1176", "COUNTY": "WAKE", "FIPS": "37183", "DIRECTIONS": "", "EMERGTITLE": "", "EMERGPHONE": "", "EMERGEXT": "", "CONTDATE": "0000\/00\/00", "CONTHOW": "", "GEODATE": "2007\/06\/26", "GEOHOW": "AUTO", "NAICSCODE": "611310", "NAICSDESCR": "COLLEGES (EXCEPT JUNIOR COLLEGES)", "GEOLINKID": "17109375", "X": -78.637376, "Y": 35.788240, "ST_VENDOR": "NAVTEQ", "ST_VERSION": "2006Q4", "GEOPREC": "BLOCKFACE", "PHONELOC": "", "QC_QA": "", "DEGREE": "BACHELOR'S DEGREE", "ENROLL": 668 }, "geometry": { "type": "Point", "coordinates": [ 642381.133686, 226165.788819 ] } }
,
{ "type": "Feature", "properties": { "ID": "10274241", "METLNKID": "", "FEATTYPE": "POINT", "SECCLASS": "UNCLASSIFIED", "NAME": "LIVINGSTONE COLLEGE", "AREA": "704", "PHONE": "216-6000", "ADDRESS": "701 W MONROE ST", "ADDRESS2": "", "CITY": "SALISBURY", "STATE": "NC", "ZIP": "28144", "ZIPP4": "5213", "COUNTY": "ROWAN", "FIPS": "37159", "DIRECTIONS": "", "EMERGTITLE": "", "EMERGPHONE": "", "EMERGEXT": "", "CONTDATE": "0000\/00\/00", "CONTHOW": "", "GEODATE": "2007\/06\/26", "GEOHOW": "AUTO", "NAICSCODE": "611310", "NAICSDESCR": "COLLEGES (EXCEPT JUNIOR COLLEGES)", "GEOLINKID": "102554849", "X": -80.481056, "Y": 35.669207, "ST_VENDOR": "NAVTEQ", "ST_VERSION": "2006Q4", "GEOPREC": "BLOCKFACE", "PHONELOC": "", "QC_QA": "", "DEGREE": "BACHELOR'S DEGREE", "ENROLL": 895 }, "geometry": { "type": "Point", "coordinates": [ 475526.782496, 213900.147758 ] } }
,
{ "type": "Feature", "properties": { "ID": "10274230", "METLNKID": "", "FEATTYPE": "POINT", "SECCLASS": "UNCLASSIFIED", "NAME": "GREENSBORO COLLEGE", "AREA": "336", "PHONE": "272-7102", "ADDRESS": "815 W MARKET ST", "ADDRESS2": "", "CITY": "GREENSBORO", "STATE": "NC", "ZIP": "27401", "ZIPP4": "1823", "COUNTY": "GUILFORD", "FIPS": "37081", "DIRECTIONS": "", "EMERGTITLE": "", "EMERGPHONE": "", "EMERGEXT": "", "CONTDATE": "0000\/00\/00", "CONTHOW": "", "GEODATE": "2007\/06\/26", "GEOHOW": "AUTO", "NAICSCODE": "611310", "NAICSDESCR": "COLLEGES (EXCEPT JUNIOR COLLEGES)", "GEOLINKID": "17061918", "X": -79.800288, "Y": 36.072659, "ST_VENDOR": "NAVTEQ", "ST_VERSION": "2006Q4", "GEOPREC": "BLOCKFACE", "PHONELOC": "", "QC_QA": "", "DEGREE": "MASTER'S DEGREE", "ENROLL": 1230 }, "geometry": { "type": "Point", "coordinates": [ 537513.131258, 257953.197466 ] } }
,
{ "type": "Feature", "properties": { "ID": "10274226", "METLNKID": "", "FEATTYPE": "POINT", "SECCLASS": "UNCLASSIFIED", "NAME": "FAYETTEVILLE TECHNICAL COMMUNITY COLLEGE", "AREA": "910", "PHONE": "678-8400", "ADDRESS": "2201 HULL RD", "ADDRESS2": "", "CITY": "FAYETTEVILLE", "STATE": "NC", "ZIP": "28303", "ZIPP4": "4761", "COUNTY": "CUMBERLAND", "FIPS": "37051", "DIRECTIONS": "", "EMERGTITLE": "", "EMERGPHONE": "", "EMERGEXT": "", "CONTDATE": "0000\/00\/00", "CONTHOW": "", "GEODATE": "2007\/06\/26", "GEOHOW": "AUTO", "NAICSCODE": "61151", "NAICSDESCR": "TECHNICAL AND TRADE SCHOOLS", "GEOLINKID": "127886897", "X": -78.924805, "Y": 35.066483, "ST_VENDOR": "NAVTEQ", "ST_VERSION": "2006Q4", "GEOPREC": "BLOCKFACE", "PHONELOC": "", "QC_QA": "", "DEGREE": "ASSOCIATE'S DEGREE", "ENROLL": 9950 }, "geometry": { "type": "Point", "coordinates": [ 616459.258063, 146040.045495 ] } }
,
{ "type": "Feature", "properties": { "ID": "10274224", "METLNKID": "", "FEATTYPE": "POINT", "SECCLASS": "UNCLASSIFIED", "NAME": "EDGECOMBE COMMUNITY COLLEGE", "AREA": "252", "PHONE": "823-5166", "ADDRESS": "2009 W WILSON ST", "ADDRESS2": "", "CITY": "TARBORO", "STATE": "NC", "ZIP": "27886", "ZIPP4": "9361", "COUNTY": "EDGECOMBE", "FIPS": "37065", "DIRECTIONS": "", "EMERGTITLE": "", "EMERGPHONE": "", "EMERGEXT": "", "CONTDATE": "0000\/00\/00", "CONTHOW": "", "GEODATE": "2007\/06\/26", "GEOHOW": "AUTO", "NAICSCODE": "611210", "NAICSDESCR": "COMMUNITY COLLEGES", "GEOLINKID": "102946515", "X": -77.576140, "Y": 35.879037, "ST_VENDOR": "NAVTEQ", "ST_VERSION": "2006Q4", "GEOPREC": "BLOCKFACE", "PHONELOC": "", "QC_QA": "", "DEGREE": "ASSOCIATE'S DEGREE", "ENROLL": 2426 }, "geometry": { "type": "Point", "coordinates": [ 738164.332638, 237101.662529 ] } }
,
{ "type": "Feature", "properties": { "ID": "10274216", "METLNKID": "", "FEATTYPE": "POINT", "SECCLASS": "UNCLASSIFIED", "NAME": "CENTRAL PIEDMONT COMMUNITY COLLEGE", "AREA": "704", "PHONE": "330-2722", "ADDRESS": "1201 ELIZABETH AVENUE", "ADDRESS2": "", "CITY": "CHARLOTTE", "STATE": "NC", "ZIP": "28204", "ZIPP4": "2240", "COUNTY": "MECKLENBURG", "FIPS": "37119", "DIRECTIONS": "", "EMERGTITLE": "", "EMERGPHONE": "", "EMERGEXT": "", "CONTDATE": "0000\/00\/00", "CONTHOW": "", "GEODATE": "2007\/06\/26", "GEOHOW": "AUTO", "NAICSCODE": "611210", "NAICSDESCR": "COMMUNITY COLLEGES", "GEOLINKID": "28229494", "X": -80.830766, "Y": 35.217473, "ST_VENDOR": "NAVTEQ", "ST_VERSION": "2006Q4", "GEOPREC": "BLOCKFACE", "PHONELOC": "", "QC_QA": "", "DEGREE": "ASSOCIATE'S DEGREE", "ENROLL": 16636 }, "geometry": { "type": "Point", "coordinates": [ 442947.977676, 164323.466371 ] } }
,
{ "type": "Feature", "properties": { "ID": "10274208", "METLNKID": "", "FEATTYPE": "POINT", "SECCLASS": "UNCLASSIFIED", "NAME": "BREVARD COLLEGE", "AREA": "828", "PHONE": "883-8292", "ADDRESS": "400 NORTH BROAD STREET", "ADDRESS2": "", "CITY": "BREVARD", "STATE": "NC", "ZIP": "28712", "ZIPP4": "3306", "COUNTY": "TRANSYLVANIA", "FIPS": "37175", "DIRECTIONS": "", "EMERGTITLE": "", "EMERGPHONE": "", "EMERGEXT": "", "CONTDATE": "0000\/00\/00", "CONTHOW": "", "GEODATE": "2007\/06\/26", "GEOHOW": "AUTO", "NAICSCODE": "611310", "NAICSDESCR": "COLLEGES (EXCEPT JUNIOR COLLEGES)", "GEOLINKID": "102369727", "X": -82.732190, "Y": 35.235891, "ST_VENDOR": "NAVTEQ", "ST_VERSION": "2006Q4", "GEOPREC": "BLOCKFACE", "PHONELOC": "", "QC_QA": "", "DEGREE": "BACHELOR'S DEGREE", "ENROLL": 597 }, "geometry": { "type": "Point", "coordinates": [ 270000.362860, 171214.386351 ] } }
,
{ "type": "Feature", "properties": { "ID": "10274207", "METLNKID": "", "FEATTYPE": "POINT", "SECCLASS": "UNCLASSIFIED", "NAME": "BLUE RIDGE COMMUNITY COLLEGE", "AREA": "828", "PHONE": "694-1700", "ADDRESS": "180 WEST CAMPUS DRIVE", "ADDRESS2": "", "CITY": "FLAT ROCK", "STATE": "NC", "ZIP": "28731", "ZIPP4": "4728", "COUNTY": "HENDERSON", "FIPS": "37089", "DIRECTIONS": "", "EMERGTITLE": "", "EMERGPHONE": "", "EMERGEXT": "", "CONTDATE": "0000\/00\/00", "CONTHOW": "", "GEODATE": "2007\/06\/26", "GEOHOW": "AUTO", "NAICSCODE": "611210", "NAICSDESCR": "COMMUNITY COLLEGES", "GEOLINKID": "127914601", "X": -82.421043, "Y": 35.307271, "ST_VENDOR": "NAVTEQ", "ST_VERSION": "2006Q4", "GEOPREC": "BLOCKFACE", "PHONELOC": "", "QC_QA": "", "DEGREE": "AT LEAST 2, BUT LESS THAN 4 ACADEMIC YRS", "ENROLL": 2089 }, "geometry": { "type": "Point", "coordinates": [ 298573.483272, 178107.959393 ] } }
,
{ "type": "Feature", "properties": { "ID": "10274204", "METLNKID": "", "FEATTYPE": "POINT", "SECCLASS": "UNCLASSIFIED", "NAME": "BELMONT ABBEY COLLEGE", "AREA": "704", "PHONE": "825-6700", "ADDRESS": "100 BELMONT-MT HOLLY ROAD", "ADDRESS2": "", "CITY": "BELMONT", "STATE": "NC", "ZIP": "28012", "ZIPP4": "2702", "COUNTY": "GASTON", "FIPS": "37071", "DIRECTIONS": "", "EMERGTITLE": "", "EMERGPHONE": "", "EMERGEXT": "", "CONTDATE": "0000\/00\/00", "CONTHOW": "", "GEODATE": "2007\/06\/26", "GEOHOW": "AUTO", "NAICSCODE": "611310", "NAICSDESCR": "COLLEGES (EXCEPT JUNIOR COLLEGES)", "GEOLINKID": "28217953", "X": -81.042160, "Y": 35.263565, "ST_VENDOR": "NAVTEQ", "ST_VERSION": "2006Q4", "GEOPREC": "BLOCKFACE", "PHONELOC": "", "QC_QA": "", "DEGREE": "BACHELOR'S DEGREE", "ENROLL": 887 }, "geometry": { "type": "Point", "coordinates": [ 423812.668419, 169810.732244 ] } }
,
{ "type": "Feature", "properties": { "ID": "10272276", "METLNKID": "", "FEATTYPE": "POINT", "SECCLASS": "UNCLASSIFIED", "NAME": "WINGATE UNIVERSITY", "AREA": "704", "PHONE": "233-8000", "ADDRESS": "220 NORTH CAMDEN ROAD", "ADDRESS2": "", "CITY": "WINGATE", "STATE": "NC", "ZIP": "28174", "ZIPP4": "9644", "COUNTY": "UNION", "FIPS": "37179", "DIRECTIONS": "", "EMERGTITLE": "", "EMERGPHONE": "", "EMERGEXT": "", "CONTDATE": "0000\/00\/00", "CONTHOW": "", "GEODATE": "2007\/06\/26", "GEOHOW": "AUTO", "NAICSCODE": "611310", "NAICSDESCR": "UNIVERSITIES", "GEOLINKID": "115999336", "X": -80.443658, "Y": 34.985197, "ST_VENDOR": "NAVTEQ", "ST_VERSION": "2006Q4", "GEOPREC": "BLOCKFACE", "PHONELOC": "", "QC_QA": "", "DEGREE": "MASTER'S DEGREE", "ENROLL": 1633 }, "geometry": { "type": "Point", "coordinates": [ 477808.567414, 137978.856120 ] } }
,
{ "type": "Feature", "properties": { "ID": "10272064", "METLNKID": "", "FEATTYPE": "POINT", "SECCLASS": "UNCLASSIFIED", "NAME": "SHAW UNIVERSITY", "AREA": "919", "PHONE": "546-8200", "ADDRESS": "118 E SOUTH ST", "ADDRESS2": "", "CITY": "RALEIGH", "STATE": "NC", "ZIP": "27601", "ZIPP4": "2341", "COUNTY": "WAKE", "FIPS": "37183", "DIRECTIONS": "", "EMERGTITLE": "", "EMERGPHONE": "", "EMERGEXT": "", "CONTDATE": "0000\/00\/00", "CONTHOW": "", "GEODATE": "2007\/06\/26", "GEOHOW": "AUTO", "NAICSCODE": "611310", "NAICSDESCR": "UNIVERSITIES", "GEOLINKID": "17112425", "X": -78.637986, "Y": 35.771817, "ST_VENDOR": "NAVTEQ", "ST_VERSION": "2006Q4", "GEOPREC": "BLOCKFACE", "PHONELOC": "", "QC_QA": "", "DEGREE": "MASTER'S DEGREE", "ENROLL": 2762 }, "geometry": { "type": "Point", "coordinates": [ 642332.628419, 224343.577551 ] } }
,
{ "type": "Feature", "properties": { "ID": "10272060", "METLNKID": "", "FEATTYPE": "POINT", "SECCLASS": "UNCLASSIFIED", "NAME": "CATAWBA COLLEGE", "AREA": "704", "PHONE": "637-4111", "ADDRESS": "2300 W INNES ST", "ADDRESS2": "", "CITY": "SALISBURY", "STATE": "NC", "ZIP": "28144", "ZIPP4": "2441", "COUNTY": "ROWAN", "FIPS": "37159", "DIRECTIONS": "", "EMERGTITLE": "", "EMERGPHONE": "", "EMERGEXT": "", "CONTDATE": "0000\/00\/00", "CONTHOW": "", "GEODATE": "2007\/06\/26", "GEOHOW": "AUTO", "NAICSCODE": "611310", "NAICSDESCR": "COLLEGES (EXCEPT JUNIOR COLLEGES)", "GEOLINKID": "102405866", "X": -80.481697, "Y": 35.690731, "ST_VENDOR": "NAVTEQ", "ST_VERSION": "2006Q4", "GEOPREC": "BLOCKFACE", "PHONELOC": "", "QC_QA": "", "DEGREE": "MASTER'S DEGREE", "ENROLL": 1288 }, "geometry": { "type": "Point", "coordinates": [ 475504.459051, 216288.656786 ] } }
,
{ "type": "Feature", "properties": { "ID": "10271512", "METLNKID": "", "FEATTYPE": "POINT", "SECCLASS": "UNCLASSIFIED", "NAME": "PITT COMMUNITY COLLEGE", "AREA": "252", "PHONE": "493-7200", "ADDRESS": "1986 PITT TECH ROAD", "ADDRESS2": "", "CITY": "WINTERVILLE", "STATE": "NC", "ZIP": "28590", "ZIPP4": "7822", "COUNTY": "PITT", "FIPS": "37147", "DIRECTIONS": "", "EMERGTITLE": "", "EMERGPHONE": "", "EMERGEXT": "", "CONTDATE": "0000\/00\/00", "CONTHOW": "", "GEODATE": "2007\/06\/26", "GEOHOW": "AUTO", "NAICSCODE": "611210", "NAICSDESCR": "COMMUNITY COLLEGES", "GEOLINKID": "125349529", "X": -77.406503, "Y": 35.548252, "ST_VENDOR": "NAVTEQ", "ST_VERSION": "2006Q4", "GEOPREC": "BLOCKFACE", "PHONELOC": "", "QC_QA": "", "DEGREE": "ASSOCIATE'S DEGREE", "ENROLL": 6091 }, "geometry": { "type": "Point", "coordinates": [ 754069.010240, 200640.765826 ] } }
,
{ "type": "Feature", "properties": { "ID": "10275932", "METLNKID": "", "FEATTYPE": "POINT", "SECCLASS": "UNCLASSIFIED", "NAME": "NEW LIFE THEOLOGICAL SEMINARY", "AREA": "704", "PHONE": "334-6882", "ADDRESS": "3117 WHITING AVE", "ADDRESS2": "", "CITY": "CHARLOTTE", "STATE": "NC", "ZIP": "28205", "ZIPP4": "1648", "COUNTY": "MECKLENBURG", "FIPS": "37119", "DIRECTIONS": "", "EMERGTITLE": "", "EMERGPHONE": "", "EMERGEXT": "", "CONTDATE": "0000\/00\/00", "CONTHOW": "", "GEODATE": "2007\/06\/26", "GEOHOW": "AUTO", "NAICSCODE": "611310", "NAICSDESCR": "THEOLOGICAL SEMINARIES OFFERING BACCALAUREATE OR GRADUATE DEGREES", "GEOLINKID": "28224466", "X": -80.802292, "Y": 35.242762, "ST_VENDOR": "NAVTEQ", "ST_VERSION": "2006Q4", "GEOPREC": "BLOCKFACE", "PHONELOC": "", "QC_QA": "", "DEGREE": "MASTER'S DEGREE", "ENROLL": 42 }, "geometry": { "type": "Point", "coordinates": [ 445590.619081, 167080.922721 ] } }
,
{ "type": "Feature", "properties": { "ID": "10274279", "METLNKID": "", "FEATTYPE": "POINT", "SECCLASS": "UNCLASSIFIED", "NAME": "SURRY COMMUNITY COLLEGE", "AREA": "336", "PHONE": "386-3204", "ADDRESS": "630 S. MAIN ST.", "ADDRESS2": "", "CITY": "DOBSON", "STATE": "NC", "ZIP": "27017", "ZIPP4": "8432", "COUNTY": "SURRY", "FIPS": "37171", "DIRECTIONS": "", "EMERGTITLE": "", "EMERGPHONE": "", "EMERGEXT": "", "CONTDATE": "0000\/00\/00", "CONTHOW": "", "GEODATE": "2007\/06\/26", "GEOHOW": "AUTO", "NAICSCODE": "611210", "NAICSDESCR": "COMMUNITY COLLEGES", "GEOLINKID": "125368500", "X": -80.714980, "Y": 36.383546, "ST_VENDOR": "NAVTEQ", "ST_VERSION": "2006Q4", "GEOPREC": "BLOCKFACE", "PHONELOC": "", "QC_QA": "", "DEGREE": "ASSOCIATE'S DEGREE", "ENROLL": 2910 }, "geometry": { "type": "Point", "coordinates": [ 455721.756255, 293489.581745 ] } }
,
{ "type": "Feature", "properties": { "ID": "10274277", "METLNKID": "", "FEATTYPE": "POINT", "SECCLASS": "UNCLASSIFIED", "NAME": "STANLY COMMUNITY COLLEGE", "AREA": "704", "PHONE": "982-0121", "ADDRESS": "141 COLLEGE DR", "ADDRESS2": "", "CITY": "ALBEMARLE", "STATE": "NC", "ZIP": "28001", "ZIPP4": "7458", "COUNTY": "STANLY", "FIPS": "37167", "DIRECTIONS": "", "EMERGTITLE": "", "EMERGPHONE": "", "EMERGEXT": "", "CONTDATE": "0000\/00\/00", "CONTHOW": "", "GEODATE": "2007\/06\/26", "GEOHOW": "AUTO", "NAICSCODE": "611210", "NAICSDESCR": "COMMUNITY COLLEGES", "GEOLINKID": "125307195", "X": -80.234096, "Y": 35.337147, "ST_VENDOR": "NAVTEQ", "ST_VERSION": "2006Q4", "GEOPREC": "BLOCKFACE", "PHONELOC": "", "QC_QA": "", "DEGREE": "ASSOCIATE'S DEGREE", "ENROLL": 2033 }, "geometry": { "type": "Point", "coordinates": [ 497423.924249, 176759.544351 ] } }
,
{ "type": "Feature", "properties": { "ID": "10274273", "METLNKID": "", "FEATTYPE": "POINT", "SECCLASS": "UNCLASSIFIED", "NAME": "SALEM COLLEGE", "AREA": "336", "PHONE": "721-2600", "ADDRESS": "601 S CHURCH ST", "ADDRESS2": "", "CITY": "WINSTON SALEM", "STATE": "NC", "ZIP": "27101", "ZIPP4": "5318", "COUNTY": "FORSYTH", "FIPS": "37067", "DIRECTIONS": "", "EMERGTITLE": "", "EMERGPHONE": "", "EMERGEXT": "", "CONTDATE": "0000\/00\/00", "CONTHOW": "", "GEODATE": "2007\/06\/26", "GEOHOW": "AUTO", "NAICSCODE": "611310", "NAICSDESCR": "COLLEGES (EXCEPT JUNIOR COLLEGES)", "GEOLINKID": "17057325", "X": -80.240990, "Y": 36.087371, "ST_VENDOR": "NAVTEQ", "ST_VERSION": "2006Q4", "GEOPREC": "BLOCKFACE", "PHONELOC": "", "QC_QA": "", "DEGREE": "MASTER'S DEGREE", "ENROLL": 1109 }, "geometry": { "type": "Point", "coordinates": [ 497837.854004, 259993.671800 ] } }
,
{ "type": "Feature", "properties": { "ID": "10274258", "METLNKID": "", "FEATTYPE": "POINT", "SECCLASS": "UNCLASSIFIED", "NAME": "NORTH CAROLINA WESLEYAN COLLEGE", "AREA": "252", "PHONE": "985-5100", "ADDRESS": "3400 N WESLEYAN BLVD", "ADDRESS2": "", "CITY": "ROCKY MOUNT", "STATE": "NC", "ZIP": "27804", "ZIPP4": "8699", "COUNTY": "NASH", "FIPS": "37127", "DIRECTIONS": "", "EMERGTITLE": "", "EMERGPHONE": "", "EMERGEXT": "", "CONTDATE": "0000\/00\/00", "CONTHOW": "", "GEODATE": "2007\/06\/26", "GEOHOW": "AUTO", "NAICSCODE": "611310", "NAICSDESCR": "COLLEGES (EXCEPT JUNIOR COLLEGES)", "GEOLINKID": "102389833", "X": -77.772544, "Y": 36.012639, "ST_VENDOR": "NAVTEQ", "ST_VERSION": "2006Q4", "GEOPREC": "BLOCKFACE", "PHONELOC": "", "QC_QA": "", "DEGREE": "BACHELOR'S DEGREE", "ENROLL": 1752 }, "geometry": { "type": "Point", "coordinates": [ 720248.325444, 251687.151711 ] } }
,
{ "type": "Feature", "properties": { "ID": "10274255", "METLNKID": "", "FEATTYPE": "POINT", "SECCLASS": "UNCLASSIFIED", "NAME": "NORTH CAROLINA CENTRAL UNIVERSITY", "AREA": "919", "PHONE": "530-6100", "ADDRESS": "1801 FAYETTEVILLE STREET", "ADDRESS2": "", "CITY": "DURHAM", "STATE": "NC", "ZIP": "27707", "ZIPP4": "3129", "COUNTY": "DURHAM", "FIPS": "37063", "DIRECTIONS": "", "EMERGTITLE": "", "EMERGPHONE": "", "EMERGEXT": "", "CONTDATE": "0000\/00\/00", "CONTHOW": "", "GEODATE": "2007\/06\/26", "GEOHOW": "AUTO", "NAICSCODE": "611310", "NAICSDESCR": "UNIVERSITIES", "GEOLINKID": "17089392", "X": -78.900702, "Y": 35.976060, "ST_VENDOR": "NAVTEQ", "ST_VERSION": "2006Q4", "GEOPREC": "BLOCKFACE", "PHONELOC": "", "QC_QA": "", "DEGREE": "MASTER'S DEGREE", "ENROLL": 8219 }, "geometry": { "type": "Point", "coordinates": [ 618556.577348, 246948.987959 ] } }
,
{ "type": "Feature", "properties": { "ID": "10274248", "METLNKID": "", "FEATTYPE": "POINT", "SECCLASS": "UNCLASSIFIED", "NAME": "MONTGOMERY COMMUNITY COLLEGE", "AREA": "910", "PHONE": "576-6222", "ADDRESS": "1011 PAGE ST", "ADDRESS2": "", "CITY": "TROY", "STATE": "NC", "ZIP": "27371", "ZIPP4": "8387", "COUNTY": "MONTGOMERY", "FIPS": "37123", "DIRECTIONS": "", "EMERGTITLE": "", "EMERGPHONE": "", "EMERGEXT": "", "CONTDATE": "0000\/00\/00", "CONTHOW": "", "GEODATE": "2007\/06\/26", "GEOHOW": "AUTO", "NAICSCODE": "611210", "NAICSDESCR": "COMMUNITY COLLEGES", "GEOLINKID": "125368251", "X": -79.890953, "Y": 35.368614, "ST_VENDOR": "NAVTEQ", "ST_VERSION": "2006Q4", "GEOPREC": "BLOCKFACE", "PHONELOC": "", "QC_QA": "", "DEGREE": "AT LEAST 2, BUT LESS THAN 4 ACADEMIC YRS", "ENROLL": 850 }, "geometry": { "type": "Point", "coordinates": [ 528645.411621, 179916.264766 ] } }
,
{ "type": "Feature", "properties": { "ID": "10274231", "METLNKID": "", "FEATTYPE": "POINT", "SECCLASS": "UNCLASSIFIED", "NAME": "GUILFORD TECHNICAL COMMUNITY COLLEGE", "AREA": "336", "PHONE": "334-4822", "ADDRESS": "601 HIGH POINT RD", "ADDRESS2": "", "CITY": "JAMESTOWN", "STATE": "NC", "ZIP": "27282", "ZIPP4": "8572", "COUNTY": "GUILFORD", "FIPS": "37081", "DIRECTIONS": "", "EMERGTITLE": "", "EMERGPHONE": "", "EMERGEXT": "", "CONTDATE": "0000\/00\/00", "CONTHOW": "", "GEODATE": "2007\/06\/26", "GEOHOW": "AUTO", "NAICSCODE": "61151", "NAICSDESCR": "TECHNICAL AND TRADE SCHOOLS", "GEOLINKID": "135925891", "X": -79.915621, "Y": 35.996983, "ST_VENDOR": "NAVTEQ", "ST_VERSION": "2006Q4", "GEOPREC": "BLOCKFACE", "PHONELOC": "", "QC_QA": "", "DEGREE": "ASSOCIATE'S DEGREE", "ENROLL": 8984 }, "geometry": { "type": "Point", "coordinates": [ 527047.057726, 249646.664533 ] } }
,
{ "type": "Feature", "properties": { "ID": "10274227", "METLNKID": "", "FEATTYPE": "POINT", "SECCLASS": "UNCLASSIFIED", "NAME": "FAYETTEVILLE STATE UNIVERSITY", "AREA": "910", "PHONE": "672-1111", "ADDRESS": "1200 MURCHISON RD", "ADDRESS2": "", "CITY": "FAYETTEVILLE", "STATE": "NC", "ZIP": "28301", "ZIPP4": "4252", "COUNTY": "CUMBERLAND", "FIPS": "37051", "DIRECTIONS": "", "EMERGTITLE": "", "EMERGPHONE": "", "EMERGEXT": "", "CONTDATE": "0000\/00\/00", "CONTHOW": "", "GEODATE": "2007\/06\/26", "GEOHOW": "AUTO", "NAICSCODE": "611310", "NAICSDESCR": "UNIVERSITIES", "GEOLINKID": "109857976", "X": -78.894385, "Y": 35.071919, "ST_VENDOR": "NAVTEQ", "ST_VERSION": "2006Q4", "GEOPREC": "BLOCKFACE", "PHONELOC": "", "QC_QA": "", "DEGREE": "DOCTOR'S DEGREE", "ENROLL": 6072 }, "geometry": { "type": "Point", "coordinates": [ 619233.016892, 146645.602142 ] } }
,
{ "type": "Feature", "properties": { "ID": "10274219", "METLNKID": "", "FEATTYPE": "POINT", "SECCLASS": "UNCLASSIFIED", "NAME": "COASTAL CAROLINA COMMUNITY COLLEGE", "AREA": "910", "PHONE": "455-1221", "ADDRESS": "444 WESTERN BLVD", "ADDRESS2": "", "CITY": "JACKSONVILLE", "STATE": "NC", "ZIP": "28546", "ZIPP4": "6816", "COUNTY": "ONSLOW", "FIPS": "37133", "DIRECTIONS": "", "EMERGTITLE": "", "EMERGPHONE": "", "EMERGEXT": "", "CONTDATE": "0000\/00\/00", "CONTHOW": "", "GEODATE": "2007\/06\/26", "GEOHOW": "AUTO", "NAICSCODE": "611210", "NAICSDESCR": "COMMUNITY COLLEGES", "GEOLINKID": "125082217", "X": -77.387590, "Y": 34.772879, "ST_VENDOR": "NAVTEQ", "ST_VERSION": "2006Q4", "GEOPREC": "BLOCKFACE", "PHONELOC": "", "QC_QA": "", "DEGREE": "ASSOCIATE'S DEGREE", "ENROLL": 4111 }, "geometry": { "type": "Point", "coordinates": [ 757180.538303, 114667.414299 ] } }
,
{ "type": "Feature", "properties": { "ID": "10274218", "METLNKID": "", "FEATTYPE": "POINT", "SECCLASS": "UNCLASSIFIED", "NAME": "CLEVELAND COMMUNITY COLLEGE", "AREA": "704", "PHONE": "484-4000", "ADDRESS": "137 S POST RD", "ADDRESS2": "", "CITY": "SHELBY", "STATE": "NC", "ZIP": "28152", "ZIPP4": "6205", "COUNTY": "CLEVELAND", "FIPS": "37045", "DIRECTIONS": "", "EMERGTITLE": "", "EMERGPHONE": "", "EMERGEXT": "", "CONTDATE": "0000\/00\/00", "CONTHOW": "", "GEODATE": "2007\/06\/26", "GEOHOW": "AUTO", "NAICSCODE": "611210", "NAICSDESCR": "COMMUNITY COLLEGES", "GEOLINKID": "109847758", "X": -81.491668, "Y": 35.282908, "ST_VENDOR": "NAVTEQ", "ST_VERSION": "2006Q4", "GEOPREC": "BLOCKFACE", "PHONELOC": "", "QC_QA": "", "DEGREE": "ASSOCIATE'S DEGREE", "ENROLL": 3047 }, "geometry": { "type": "Point", "coordinates": [ 382979.746892, 172889.617617 ] } }
,
{ "type": "Feature", "properties": { "ID": "10274205", "METLNKID": "", "FEATTYPE": "POINT", "SECCLASS": "UNCLASSIFIED", "NAME": "BENNETT COLLEGE FOR WOMEN", "AREA": "336", "PHONE": "273-4431", "ADDRESS": "900 E WASHINGTON ST", "ADDRESS2": "", "CITY": "GREENSBORO", "STATE": "NC", "ZIP": "27401", "ZIPP4": "3239", "COUNTY": "GUILFORD", "FIPS": "37081", "DIRECTIONS": "", "EMERGTITLE": "", "EMERGPHONE": "", "EMERGEXT": "", "CONTDATE": "0000\/00\/00", "CONTHOW": "", "GEODATE": "2007\/06\/26", "GEOHOW": "AUTO", "NAICSCODE": "611310", "NAICSDESCR": "COLLEGES (EXCEPT JUNIOR COLLEGES)", "GEOLINKID": "17062749", "X": -79.778663, "Y": 36.068952, "ST_VENDOR": "NAVTEQ", "ST_VERSION": "2006Q4", "GEOPREC": "BLOCKFACE", "PHONELOC": "", "QC_QA": "", "DEGREE": "BACHELOR'S DEGREE", "ENROLL": 572 }, "geometry": { "type": "Point", "coordinates": [ 539457.742577, 257526.398155 ] } }
,
{ "type": "Feature", "properties": { "ID": "10274201", "METLNKID": "", "FEATTYPE": "POINT", "SECCLASS": "UNCLASSIFIED", "NAME": "ASHEVILLE BUNCOMBE TECHNICAL COMMUNITY COLLEGE", "AREA": "828", "PHONE": "254-1921", "ADDRESS": "340 VICTORIA RD", "ADDRESS2": "", "CITY": "ASHEVILLE", "STATE": "NC", "ZIP": "28801", "ZIPP4": "4816", "COUNTY": "BUNCOMBE", "FIPS": "37021", "DIRECTIONS": "", "EMERGTITLE": "", "EMERGPHONE": "", "EMERGEXT": "", "CONTDATE": "0000\/00\/00", "CONTHOW": "", "GEODATE": "2007\/06\/26", "GEOHOW": "AUTO", "NAICSCODE": "61151", "NAICSDESCR": "TECHNICAL AND TRADE SCHOOLS", "GEOLINKID": "125363607", "X": -82.554589, "Y": 35.568017, "ST_VENDOR": "NAVTEQ", "ST_VERSION": "2006Q4", "GEOPREC": "BLOCKFACE", "PHONELOC": "", "QC_QA": "", "DEGREE": "ASSOCIATE'S DEGREE", "ENROLL": 6337 }, "geometry": { "type": "Point", "coordinates": [ 287472.607607, 207441.881885 ] } }
,
{ "type": "Feature", "properties": { "ID": "10272003", "METLNKID": "", "FEATTYPE": "POINT", "SECCLASS": "UNCLASSIFIED", "NAME": "MARS HILL COLLEGE", "AREA": "828", "PHONE": "689-1307", "ADDRESS": "100 ATHLETIC ST", "ADDRESS2": "", "CITY": "MARS HILL", "STATE": "NC", "ZIP": "28754", "ZIPP4": "", "COUNTY": "MADISON", "FIPS": "37115", "DIRECTIONS": "", "EMERGTITLE": "", "EMERGPHONE": "", "EMERGEXT": "", "CONTDATE": "0000\/00\/00", "CONTHOW": "", "GEODATE": "2007\/06\/26", "GEOHOW": "AUTO", "NAICSCODE": "611310", "NAICSDESCR": "COLLEGES (EXCEPT JUNIOR COLLEGES)", "GEOLINKID": "102513838", "X": -82.552780, "Y": 35.827083, "ST_VENDOR": "NAVTEQ", "ST_VERSION": "2006Q4", "GEOPREC": "BLOCKFACE", "PHONELOC": "", "QC_QA": "", "DEGREE": "BACHELOR'S DEGREE", "ENROLL": 1308 }, "geometry": { "type": "Point", "coordinates": [ 288664.861689, 236159.056306 ] } }
,
{ "type": "Feature", "properties": { "ID": "10275987", "METLNKID": "", "FEATTYPE": "POINT", "SECCLASS": "UNCLASSIFIED", "NAME": "UNIVERSITY OF PHOENIX-RALEIGH CAMPUS", "AREA": "919", "PHONE": "854-2134", "ADDRESS": "5511 CAPITAL CENTER DRIVE STE. 380", "ADDRESS2": "", "CITY": "RALEIGH", "STATE": "NC", "ZIP": "27606", "ZIPP4": "4168", "COUNTY": "WAKE", "FIPS": "37183", "DIRECTIONS": "", "EMERGTITLE": "", "EMERGPHONE": "", "EMERGEXT": "", "CONTDATE": "0000\/00\/00", "CONTHOW": "", "GEODATE": "2007\/06\/26", "GEOHOW": "AUTO", "NAICSCODE": "611310", "NAICSDESCR": "UNIVERSITIES", "GEOLINKID": "17123174", "X": -78.729081, "Y": 35.767244, "ST_VENDOR": "NAVTEQ", "ST_VERSION": "2006Q4", "GEOPREC": "BLOCKFACE", "PHONELOC": "", "QC_QA": "", "DEGREE": "MASTER'S DEGREE", "ENROLL": 221 }, "geometry": { "type": "Point", "coordinates": [ 634097.730150, 223809.926493 ] } }
,
{ "type": "Feature", "properties": { "ID": "10275897", "METLNKID": "", "FEATTYPE": "POINT", "SECCLASS": "UNCLASSIFIED", "NAME": "HOOD THEOLOGICAL SEMINARY", "AREA": "704", "PHONE": "636-7611", "ADDRESS": "1810 LUTHERAN SYNOD DRIVE", "ADDRESS2": "", "CITY": "SALISBURY", "STATE": "NC", "ZIP": "28144", "ZIPP4": "5734", "COUNTY": "ROWAN", "FIPS": "37159", "DIRECTIONS": "", "EMERGTITLE": "", "EMERGPHONE": "", "EMERGEXT": "", "CONTDATE": "0000\/00\/00", "CONTHOW": "", "GEODATE": "2007\/06\/26", "GEOHOW": "AUTO", "NAICSCODE": "611310", "NAICSDESCR": "THEOLOGICAL SEMINARIES OFFERING BACCALAUREATE OR GRADUATE DEGREES", "GEOLINKID": "112126128", "X": -80.480254, "Y": 35.644095, "ST_VENDOR": "NAVTEQ", "ST_VERSION": "2006Q4", "GEOPREC": "BLOCKFACE", "PHONELOC": "", "QC_QA": "", "DEGREE": "DOCTOR'S DEGREE", "ENROLL": 251 }, "geometry": { "type": "Point", "coordinates": [ 475557.847396, 211113.412207 ] } }
,
{ "type": "Feature", "properties": { "ID": "10274287", "METLNKID": "", "FEATTYPE": "POINT", "SECCLASS": "UNCLASSIFIED", "NAME": "WESTERN PIEDMONT COMMUNITY COLLEGE", "AREA": "828", "PHONE": "438-6141", "ADDRESS": "1001 BURKEMONT AVE", "ADDRESS2": "", "CITY": "MORGANTON", "STATE": "NC", "ZIP": "28655", "ZIPP4": "4504", "COUNTY": "BURKE", "FIPS": "37023", "DIRECTIONS": "", "EMERGTITLE": "", "EMERGPHONE": "", "EMERGEXT": "", "CONTDATE": "0000\/00\/00", "CONTHOW": "", "GEODATE": "2007\/06\/26", "GEOHOW": "AUTO", "NAICSCODE": "611210", "NAICSDESCR": "COMMUNITY COLLEGES", "GEOLINKID": "118982943", "X": -81.693025, "Y": 35.727880, "ST_VENDOR": "NAVTEQ", "ST_VERSION": "2006Q4", "GEOPREC": "BLOCKFACE", "PHONELOC": "", "QC_QA": "", "DEGREE": "ASSOCIATE'S DEGREE", "ENROLL": 2823 }, "geometry": { "type": "Point", "coordinates": [ 366009.301615, 222713.592020 ] } }
,
{ "type": "Feature", "properties": { "ID": "10274285", "METLNKID": "", "FEATTYPE": "POINT", "SECCLASS": "UNCLASSIFIED", "NAME": "WARREN WILSON COLLEGE", "AREA": "828", "PHONE": "298-3325", "ADDRESS": "701 WARREN WILSON RD", "ADDRESS2": "", "CITY": "SWANNANOA", "STATE": "NC", "ZIP": "28778", "ZIPP4": "2042", "COUNTY": "BUNCOMBE", "FIPS": "37021", "DIRECTIONS": "", "EMERGTITLE": "", "EMERGPHONE": "", "EMERGEXT": "", "CONTDATE": "0000\/00\/00", "CONTHOW": "", "GEODATE": "2007\/06\/26", "GEOHOW": "AUTO", "NAICSCODE": "611310", "NAICSDESCR": "COLLEGES (EXCEPT JUNIOR COLLEGES)", "GEOLINKID": "102569488", "X": -82.440305, "Y": 35.613173, "ST_VENDOR": "NAVTEQ", "ST_VERSION": "2006Q4", "GEOPREC": "BLOCKFACE", "PHONELOC": "", "QC_QA": "", "DEGREE": "MASTER'S DEGREE", "ENROLL": 901 }, "geometry": { "type": "Point", "coordinates": [ 297998.762744, 212083.481026 ] } }
,
{ "type": "Feature", "properties": { "ID": "10274270", "METLNKID": "", "FEATTYPE": "POINT", "SECCLASS": "UNCLASSIFIED", "NAME": "ROBESON COMMUNITY COLLEGE", "AREA": "910", "PHONE": "272-3700", "ADDRESS": "5160 FAYETTEVILLE RD", "ADDRESS2": "", "CITY": "LUMBERTON", "STATE": "NC", "ZIP": "28360", "ZIPP4": "2158", "COUNTY": "ROBESON", "FIPS": "37155", "DIRECTIONS": "", "EMERGTITLE": "", "EMERGPHONE": "", "EMERGEXT": "", "CONTDATE": "0000\/00\/00", "CONTHOW": "", "GEODATE": "2007\/06\/26", "GEOHOW": "AUTO", "NAICSCODE": "611210", "NAICSDESCR": "COMMUNITY COLLEGES", "GEOLINKID": "102419363", "X": -79.012711, "Y": 34.679495, "ST_VENDOR": "NAVTEQ", "ST_VERSION": "2006Q4", "GEOPREC": "BLOCKFACE", "PHONELOC": "", "QC_QA": "", "DEGREE": "ASSOCIATE'S DEGREE", "ENROLL": 2527 }, "geometry": { "type": "Point", "coordinates": [ 608436.463825, 103110.166317 ] } }
,
{ "type": "Feature", "properties": { "ID": "10274269", "METLNKID": "", "FEATTYPE": "POINT", "SECCLASS": "UNCLASSIFIED", "NAME": "ROANOKE-CHOWAN COMMUNITY COLLEGE", "AREA": "252", "PHONE": "862-1200", "ADDRESS": "109 COMMUNITY COLLEGE RD", "ADDRESS2": "", "CITY": "AHOSKIE", "STATE": "NC", "ZIP": "27910", "ZIPP4": "8048", "COUNTY": "HERTFORD", "FIPS": "37091", "DIRECTIONS": "", "EMERGTITLE": "", "EMERGPHONE": "", "EMERGEXT": "", "CONTDATE": "0000\/00\/00", "CONTHOW": "", "GEODATE": "2007\/06\/26", "GEOHOW": "AUTO", "NAICSCODE": "611210", "NAICSDESCR": "COMMUNITY COLLEGES", "GEOLINKID": "90910745", "X": -77.022544, "Y": 36.324424, "ST_VENDOR": "NAVTEQ", "ST_VERSION": "2006Q4", "GEOPREC": "BLOCKFACE", "PHONELOC": "", "QC_QA": "", "DEGREE": "ASSOCIATE'S DEGREE", "ENROLL": 953 }, "geometry": { "type": "Point", "coordinates": [ 787159.612277, 287367.991772 ] } }
,
{ "type": "Feature", "properties": { "ID": "10274267", "METLNKID": "", "FEATTYPE": "POINT", "SECCLASS": "UNCLASSIFIED", "NAME": "RICHMOND COMMUNITY COLLEGE", "AREA": "910", "PHONE": "582-7000", "ADDRESS": "1042 W HAMLET AVE", "ADDRESS2": "", "CITY": "HAMLET", "STATE": "NC", "ZIP": "28345", "ZIPP4": "4522", "COUNTY": "RICHMOND", "FIPS": "37153", "DIRECTIONS": "", "EMERGTITLE": "", "EMERGPHONE": "", "EMERGEXT": "", "CONTDATE": "0000\/00\/00", "CONTHOW": "", "GEODATE": "2007\/06\/26", "GEOHOW": "AUTO", "NAICSCODE": "611210", "NAICSDESCR": "COMMUNITY COLLEGES", "GEOLINKID": "124729920", "X": -79.714438, "Y": 34.906649, "ST_VENDOR": "NAVTEQ", "ST_VERSION": "2006Q4", "GEOPREC": "BLOCKFACE", "PHONELOC": "", "QC_QA": "", "DEGREE": "ASSOCIATE'S DEGREE", "ENROLL": 1472 }, "geometry": { "type": "Point", "coordinates": [ 544315.207798, 128542.357448 ] } }
,
{ "type": "Feature", "properties": { "ID": "10274246", "METLNKID": "", "FEATTYPE": "POINT", "SECCLASS": "UNCLASSIFIED", "NAME": "MILLER-MOTTE TECHNICAL COLLEGE", "AREA": "910", "PHONE": "392-4660", "ADDRESS": "5000 MARKET STREET", "ADDRESS2": "", "CITY": "WILMINGTON", "STATE": "NC", "ZIP": "28405", "ZIPP4": "3430", "COUNTY": "NEW HANOVER", "FIPS": "37129", "DIRECTIONS": "", "EMERGTITLE": "", "EMERGPHONE": "", "EMERGEXT": "", "CONTDATE": "0000\/00\/00", "CONTHOW": "", "GEODATE": "2007\/06\/26", "GEOHOW": "AUTO", "NAICSCODE": "61151", "NAICSDESCR": "TECHNICAL AND TRADE SCHOOLS", "GEOLINKID": "102942835", "X": -77.883569, "Y": 34.243532, "ST_VENDOR": "NAVTEQ", "ST_VERSION": "2006Q4", "GEOPREC": "BLOCKFACE", "PHONELOC": "", "QC_QA": "", "DEGREE": "BACHELOR'S DEGREE", "ENROLL": 707 }, "geometry": { "type": "Point", "coordinates": [ 712447.742156, 55328.276549 ] } }
,
{ "type": "Feature", "properties": { "ID": "10274245", "METLNKID": "", "FEATTYPE": "POINT", "SECCLASS": "UNCLASSIFIED", "NAME": "MEREDITH COLLEGE", "AREA": "919", "PHONE": "760-8600", "ADDRESS": "3800 HILLSBOROUGH ST", "ADDRESS2": "", "CITY": "RALEIGH", "STATE": "NC", "ZIP": "27607", "ZIPP4": "5237", "COUNTY": "WAKE", "FIPS": "37183", "DIRECTIONS": "", "EMERGTITLE": "", "EMERGPHONE": "", "EMERGEXT": "", "CONTDATE": "0000\/00\/00", "CONTHOW": "", "GEODATE": "2007\/06\/26", "GEOHOW": "AUTO", "NAICSCODE": "611310", "NAICSDESCR": "COLLEGES (EXCEPT JUNIOR COLLEGES)", "GEOLINKID": "17108145", "X": -78.688041, "Y": 35.794525, "ST_VENDOR": "NAVTEQ", "ST_VERSION": "2006Q4", "GEOPREC": "BLOCKFACE", "PHONELOC": "", "QC_QA": "", "DEGREE": "MASTER'S DEGREE", "ENROLL": 2168 }, "geometry": { "type": "Point", "coordinates": [ 637799.022924, 226847.500771 ] } }
,
{ "type": "Feature", "properties": { "ID": "10274234", "METLNKID": "", "FEATTYPE": "POINT", "SECCLASS": "UNCLASSIFIED", "NAME": "HERITAGE BIBLE COLLEGE", "AREA": "800", "PHONE": "297-6351", "ADDRESS": "1747 BUD HAWKINS ROAD", "ADDRESS2": "", "CITY": "DUNN", "STATE": "NC", "ZIP": "28334", "ZIPP4": "", "COUNTY": "HARNETT", "FIPS": "37085", "DIRECTIONS": "", "EMERGTITLE": "", "EMERGPHONE": "", "EMERGEXT": "", "CONTDATE": "0000\/00\/00", "CONTHOW": "", "GEODATE": "2007\/06\/26", "GEOHOW": "AUTO", "NAICSCODE": "611310", "NAICSDESCR": "THEOLOGICAL SEMINARIES OFFERING BACCALAUREATE OR GRADUATE DEGREES", "GEOLINKID": "125444784", "X": -78.613295, "Y": 35.268149, "ST_VENDOR": "NAVTEQ", "ST_VERSION": "2006Q4", "GEOPREC": "BLOCKFACE", "PHONELOC": "", "QC_QA": "", "DEGREE": "BACHELOR'S DEGREE", "ENROLL": 116 }, "geometry": { "type": "Point", "coordinates": [ 644782.722990, 168476.776186 ] } }
,
{ "type": "Feature", "properties": { "ID": "10274228", "METLNKID": "", "FEATTYPE": "POINT", "SECCLASS": "UNCLASSIFIED", "NAME": "FORSYTH TECHNICAL COMMUNITY COLLEGE", "AREA": "336", "PHONE": "723-0371", "ADDRESS": "2100 SILAS CREEK PKY", "ADDRESS2": "", "CITY": "WINSTON SALEM", "STATE": "NC", "ZIP": "27103", "ZIPP4": "5150", "COUNTY": "FORSYTH", "FIPS": "37067", "DIRECTIONS": "", "EMERGTITLE": "", "EMERGPHONE": "", "EMERGEXT": "", "CONTDATE": "0000\/00\/00", "CONTHOW": "", "GEODATE": "2007\/06\/26", "GEOHOW": "AUTO", "NAICSCODE": "61151", "NAICSDESCR": "TECHNICAL AND TRADE SCHOOLS", "GEOLINKID": "17133768", "X": -80.269358, "Y": 36.069561, "ST_VENDOR": "NAVTEQ", "ST_VERSION": "2006Q4", "GEOPREC": "BLOCKFACE", "PHONELOC": "", "QC_QA": "", "DEGREE": "ASSOCIATE'S DEGREE", "ENROLL": 6978 }, "geometry": { "type": "Point", "coordinates": [ 495257.870203, 258049.941089 ] } }
,
{ "type": "Feature", "properties": { "ID": "10274220", "METLNKID": "", "FEATTYPE": "POINT", "SECCLASS": "UNCLASSIFIED", "NAME": "CRAVEN COMMUNITY COLLEGE", "AREA": "252", "PHONE": "638-4131", "ADDRESS": "800 COLLEGE CT", "ADDRESS2": "", "CITY": "NEW BERN", "STATE": "NC", "ZIP": "28562", "ZIPP4": "4900", "COUNTY": "CRAVEN", "FIPS": "37049", "DIRECTIONS": "", "EMERGTITLE": "", "EMERGPHONE": "", "EMERGEXT": "", "CONTDATE": "0000\/00\/00", "CONTHOW": "", "GEODATE": "2007\/06\/26", "GEOHOW": "AUTO", "NAICSCODE": "611210", "NAICSDESCR": "COMMUNITY COLLEGES", "GEOLINKID": "102677580", "X": -77.101582, "Y": 35.110550, "ST_VENDOR": "NAVTEQ", "ST_VERSION": "2006Q4", "GEOPREC": "BLOCKFACE", "PHONELOC": "", "QC_QA": "", "DEGREE": "ASSOCIATE'S DEGREE", "ENROLL": 3039 }, "geometry": { "type": "Point", "coordinates": [ 782638.862691, 152580.359197 ] } }
,
{ "type": "Feature", "properties": { "ID": "10274217", "METLNKID": "", "FEATTYPE": "POINT", "SECCLASS": "UNCLASSIFIED", "NAME": "CHOWAN COLLEGE", "AREA": "252", "PHONE": "398-6500", "ADDRESS": "200 JONES DRIVE", "ADDRESS2": "", "CITY": "MURFREESBORO", "STATE": "NC", "ZIP": "27855", "ZIPP4": "1844", "COUNTY": "HERTFORD", "FIPS": "37091", "DIRECTIONS": "", "EMERGTITLE": "", "EMERGPHONE": "", "EMERGEXT": "", "CONTDATE": "0000\/00\/00", "CONTHOW": "", "GEODATE": "2007\/06\/26", "GEOHOW": "AUTO", "NAICSCODE": "611310", "NAICSDESCR": "COLLEGES (EXCEPT JUNIOR COLLEGES)", "GEOLINKID": "101842487", "X": -77.099718, "Y": 36.436523, "ST_VENDOR": "NAVTEQ", "ST_VERSION": "2006Q4", "GEOPREC": "BLOCKFACE", "PHONELOC": "", "QC_QA": "", "DEGREE": "BACHELOR'S DEGREE", "ENROLL": 796 }, "geometry": { "type": "Point", "coordinates": [ 779992.794783, 299670.396397 ] } }
,
{ "type": "Feature", "properties": { "ID": "10274215", "METLNKID": "", "FEATTYPE": "POINT", "SECCLASS": "UNCLASSIFIED", "NAME": "CENTRAL CAROLINA COMMUNITY COLLEGE", "AREA": "919", "PHONE": "775-5401", "ADDRESS": "1105 KELLY DR", "ADDRESS2": "", "CITY": "SANFORD", "STATE": "NC", "ZIP": "27330", "ZIPP4": "9059", "COUNTY": "LEE", "FIPS": "37105", "DIRECTIONS": "", "EMERGTITLE": "", "EMERGPHONE": "", "EMERGEXT": "", "CONTDATE": "0000\/00\/00", "CONTHOW": "", "GEODATE": "2007\/06\/26", "GEOHOW": "AUTO", "NAICSCODE": "611210", "NAICSDESCR": "COMMUNITY COLLEGES", "GEOLINKID": "125348238", "X": -79.143096, "Y": 35.471540, "ST_VENDOR": "NAVTEQ", "ST_VERSION": "2006Q4", "GEOPREC": "BLOCKFACE", "PHONELOC": "", "QC_QA": "", "DEGREE": "ASSOCIATE'S DEGREE", "ENROLL": 4707 }, "geometry": { "type": "Point", "coordinates": [ 596615.145123, 190980.388909 ] } }
,
{ "type": "Feature", "properties": { "ID": "10274213", "METLNKID": "", "FEATTYPE": "POINT", "SECCLASS": "UNCLASSIFIED", "NAME": "CARTERET COMMUNITY COLLEGE", "AREA": "252", "PHONE": "222-6000", "ADDRESS": "3505 ARENDELL ST", "ADDRESS2": "", "CITY": "MOREHEAD CITY", "STATE": "NC", "ZIP": "28557", "ZIPP4": "2905", "COUNTY": "CARTERET", "FIPS": "37031", "DIRECTIONS": "", "EMERGTITLE": "", "EMERGPHONE": "", "EMERGEXT": "", "CONTDATE": "0000\/00\/00", "CONTHOW": "", "GEODATE": "2007\/06\/26", "GEOHOW": "AUTO", "NAICSCODE": "611210", "NAICSDESCR": "COMMUNITY COLLEGES", "GEOLINKID": "127922082", "X": -76.754077, "Y": 34.724173, "ST_VENDOR": "NAVTEQ", "ST_VERSION": "2006Q4", "GEOPREC": "BLOCKFACE", "PHONELOC": "", "QC_QA": "", "DEGREE": "ASSOCIATE'S DEGREE", "ENROLL": 1642 }, "geometry": { "type": "Point", "coordinates": [ 815277.963448, 110392.889681 ] } }
,
{ "type": "Feature", "properties": { "ID": "10274212", "METLNKID": "", "FEATTYPE": "POINT", "SECCLASS": "UNCLASSIFIED", "NAME": "CAPE FEAR COMMUNITY COLLEGE", "AREA": "910", "PHONE": "362-7000", "ADDRESS": "411 NORTH FRONT STREET", "ADDRESS2": "", "CITY": "WILMINGTON", "STATE": "NC", "ZIP": "28401", "ZIPP4": "3910", "COUNTY": "NEW HANOVER", "FIPS": "37129", "DIRECTIONS": "", "EMERGTITLE": "", "EMERGPHONE": "", "EMERGEXT": "", "CONTDATE": "0000\/00\/00", "CONTHOW": "", "GEODATE": "2007\/06\/26", "GEOHOW": "AUTO", "NAICSCODE": "611210", "NAICSDESCR": "COMMUNITY COLLEGES", "GEOLINKID": "102767461", "X": -77.949658, "Y": 34.240195, "ST_VENDOR": "NAVTEQ", "ST_VERSION": "2006Q4", "GEOPREC": "BLOCKFACE", "PHONELOC": "", "QC_QA": "", "DEGREE": "ASSOCIATE'S DEGREE", "ENROLL": 7501 }, "geometry": { "type": "Point", "coordinates": [ 706363.697216, 54891.610739 ] } }
,
{ "type": "Feature", "properties": { "ID": "10272187", "METLNKID": "", "FEATTYPE": "POINT", "SECCLASS": "UNCLASSIFIED", "NAME": "SAINT AUGUSTINES COLLEGE", "AREA": "919", "PHONE": "516-4000", "ADDRESS": "1315 OAKWOOD AVENUE", "ADDRESS2": "", "CITY": "RALEIGH", "STATE": "NC", "ZIP": "27610", "ZIPP4": "2247", "COUNTY": "WAKE", "FIPS": "37183", "DIRECTIONS": "", "EMERGTITLE": "", "EMERGPHONE": "", "EMERGEXT": "", "CONTDATE": "0000\/00\/00", "CONTHOW": "", "GEODATE": "2007\/06\/26", "GEOHOW": "AUTO", "NAICSCODE": "611310", "NAICSDESCR": "COLLEGES (EXCEPT JUNIOR COLLEGES)", "GEOLINKID": "17110128", "X": -78.620682, "Y": 35.784495, "ST_VENDOR": "NAVTEQ", "ST_VERSION": "2006Q4", "GEOPREC": "BLOCKFACE", "PHONELOC": "", "QC_QA": "", "DEGREE": "BACHELOR'S DEGREE", "ENROLL": 1163 }, "geometry": { "type": "Point", "coordinates": [ 643891.769986, 225755.918127 ] } }
,
{ "type": "Feature", "properties": { "ID": "10271511", "METLNKID": "", "FEATTYPE": "POINT", "SECCLASS": "UNCLASSIFIED", "NAME": "METHODIST COLLEGE", "AREA": "910", "PHONE": "630-7000", "ADDRESS": "5400 RAMSEY ST", "ADDRESS2": "", "CITY": "FAYETTEVILLE", "STATE": "NC", "ZIP": "28311", "ZIPP4": "1420", "COUNTY": "CUMBERLAND", "FIPS": "37051", "DIRECTIONS": "", "EMERGTITLE": "", "EMERGPHONE": "", "EMERGEXT": "", "CONTDATE": "0000\/00\/00", "CONTHOW": "", "GEODATE": "2007\/06\/26", "GEOHOW": "AUTO", "NAICSCODE": "611310", "NAICSDESCR": "THEOLOGICAL SEMINARIES OFFERING BACCALAUREATE OR GRADUATE DEGREES", "GEOLINKID": "102424022", "X": -78.876272, "Y": 35.134300, "ST_VENDOR": "NAVTEQ", "ST_VERSION": "2006Q4", "GEOPREC": "BLOCKFACE", "PHONELOC": "", "QC_QA": "", "DEGREE": "MASTER'S DEGREE", "ENROLL": 2147 }, "geometry": { "type": "Point", "coordinates": [ 620876.216355, 153567.376303 ] } }
,
{ "type": "Feature", "properties": { "ID": "10274206", "METLNKID": "", "FEATTYPE": "POINT", "SECCLASS": "UNCLASSIFIED", "NAME": "BLADEN COMMUNITY COLLEGE", "AREA": "910", "PHONE": "879-5500", "ADDRESS": "7418 STATE HIGHWAY 41 WEST", "ADDRESS2": "", "CITY": "DUBLIN", "STATE": "NC", "ZIP": "28332", "ZIPP4": "", "COUNTY": "BLADEN", "FIPS": "37017", "DIRECTIONS": "ON THE NORTH SIDE OF NC-41, .35 MI EAST OF NC-410.", "EMERGTITLE": "", "EMERGPHONE": "", "EMERGEXT": "", "CONTDATE": "2007\/07\/10", "CONTHOW": "PHONE", "GEODATE": "2007\/07\/10", "GEOHOW": "MANUAL", "NAICSCODE": "611210", "NAICSDESCR": "COMMUNITY COLLEGES", "GEOLINKID": "119009857", "X": -78.729979, "Y": 34.644406, "ST_VENDOR": "NAVTEQ", "ST_VERSION": "2006Q4", "GEOPREC": "ONENTITY", "PHONELOC": "YES", "QC_QA": "TGS", "DEGREE": "ASSOCIATE'S DEGREE", "ENROLL": 1468 }, "geometry": { "type": "Point", "coordinates": [ 634355.306288, 99251.470341 ] } }
,
{ "type": "Feature", "properties": { "ID": "10274249", "METLNKID": "", "FEATTYPE": "POINT", "SECCLASS": "UNCLASSIFIED", "NAME": "MONTREAT COLLEGE", "AREA": "828", "PHONE": "669-8011", "ADDRESS": "310 GAITHER CIRCLE", "ADDRESS2": "", "CITY": "MONTREAT", "STATE": "NC", "ZIP": "28757", "ZIPP4": "", "COUNTY": "BUNCOMBE", "FIPS": "37021", "DIRECTIONS": "FROM ASSEMBLY CIR, GO EAST ON LOOKOUT RD FOR .15 MI, THEN NORTH ON GAITHER CIR FOR .04 MI, LOC ON THE EAST SIDE OF GAITHER CIR.", "EMERGTITLE": "", "EMERGPHONE": "", "EMERGEXT": "", "CONTDATE": "2007\/07\/10", "CONTHOW": "PHONE", "GEODATE": "2007\/07\/10", "GEOHOW": "MANUAL", "NAICSCODE": "611310", "NAICSDESCR": "COLLEGES (EXCEPT JUNIOR COLLEGES)", "GEOLINKID": "102898008", "X": -82.296917, "Y": 35.646233, "ST_VENDOR": "NAVTEQ", "ST_VERSION": "2006Q4", "GEOPREC": "BLOCKFACE", "PHONELOC": "YES", "QC_QA": "TGS", "DEGREE": "MASTER'S DEGREE", "ENROLL": 1017 }, "geometry": { "type": "Point", "coordinates": [ 311102.909679, 215308.519177 ] } }
,
{ "type": "Feature", "properties": { "ID": "10272062", "METLNKID": "", "FEATTYPE": "POINT", "SECCLASS": "UNCLASSIFIED", "NAME": "GARDNER-WEBB UNIVERSITY", "AREA": "704", "PHONE": "406-4000", "ADDRESS": "110 SOUTH MAIN STREET", "ADDRESS2": "", "CITY": "BOILING SPRINGS", "STATE": "NC", "ZIP": "28017", "ZIPP4": "9797", "COUNTY": "CLEVELAND", "FIPS": "37045", "DIRECTIONS": "LOC ON THE WEST SIDE OF S MAIN ST, .12 OF A MILE SOUTH OF CLIFFSIDE RD", "EMERGTITLE": "", "EMERGPHONE": "", "EMERGEXT": "", "CONTDATE": "2007\/07\/26", "CONTHOW": "PHONE", "GEODATE": "2007\/07\/26", "GEOHOW": "MANUAL", "NAICSCODE": "611310", "NAICSDESCR": "UNIVERSITIES", "GEOLINKID": "102376076", "X": -81.667259, "Y": 35.248812, "ST_VENDOR": "NAVTEQ", "ST_VERSION": "2006Q4", "GEOPREC": "ONENTITY", "PHONELOC": "YES", "QC_QA": "TGS", "DEGREE": "DOCTOR'S DEGREE", "ENROLL": 3709 }, "geometry": { "type": "Point", "coordinates": [ 366911.529126, 169523.666586 ] } }
,
{ "type": "Feature", "properties": { "ID": "10274237", "METLNKID": "", "FEATTYPE": "POINT", "SECCLASS": "UNCLASSIFIED", "NAME": "JAMES SPRUNT COMMUNITY COLLEGE", "AREA": "910", "PHONE": "296-2400", "ADDRESS": "133 JAMES SPRUNT DRIVE", "ADDRESS2": "", "CITY": "KENANSVILLE", "STATE": "NC", "ZIP": "28349", "ZIPP4": "", "COUNTY": "DUPLIN", "FIPS": "37061", "DIRECTIONS": "LOCATED ON THE SOUTH CORNER OF JAMES SPRUNT DR & NC-11", "EMERGTITLE": "", "EMERGPHONE": "", "EMERGEXT": "", "CONTDATE": "2007\/07\/10", "CONTHOW": "PHONE", "GEODATE": "2007\/07\/27", "GEOHOW": "MANUAL", "NAICSCODE": "611210", "NAICSDESCR": "COMMUNITY COLLEGES", "GEOLINKID": "125364030", "X": -77.977481, "Y": 34.948190, "ST_VENDOR": "NAVTEQ", "ST_VERSION": "2006Q4", "GEOPREC": "BLOCKFACE", "PHONELOC": "YES", "QC_QA": "TGS", "DEGREE": "ASSOCIATE'S DEGREE", "ENROLL": 1390 }, "geometry": { "type": "Point", "coordinates": [ 702991.624878, 133396.486073 ] } }
,
{ "type": "Feature", "properties": { "ID": "10274290", "METLNKID": "", "FEATTYPE": "POINT", "SECCLASS": "UNCLASSIFIED", "NAME": "CAROLINA CHRISTIAN COLLEGE", "AREA": "336", "PHONE": "744-0900", "ADDRESS": "4117 NORTHAMPTON DRIVE", "ADDRESS2": "", "CITY": "WINSTON SALEM", "STATE": "NC", "ZIP": "27105", "ZIPP4": "3241", "COUNTY": "FORSYTH", "FIPS": "37067", "DIRECTIONS": ".07 MILES EAST OF NORTHAMPTON DRIVE ON THE NORTH SIDE OF AUBREY ROBERTS DRIVE", "EMERGTITLE": "", "EMERGPHONE": "", "EMERGEXT": "", "CONTDATE": "2007\/07\/10", "CONTHOW": "PHONE", "GEODATE": "2007\/07\/10", "GEOHOW": "MANUAL", "NAICSCODE": "611310", "NAICSDESCR": "THEOLOGICAL SEMINARIES OFFERING BACCALAUREATE OR GRADUATE DEGREES", "GEOLINKID": "17045302", "X": -80.192814, "Y": 36.148402, "ST_VENDOR": "NAVTEQ", "ST_VERSION": "2006Q4", "GEOPREC": "ONENTITY", "PHONELOC": "YES", "QC_QA": "TGS", "DEGREE": "BACHELOR'S DEGREE", "ENROLL": 40 }, "geometry": { "type": "Point", "coordinates": [ 502257.656009, 266712.025188 ] } }
,
{ "type": "Feature", "properties": { "ID": "10274233", "METLNKID": "", "FEATTYPE": "POINT", "SECCLASS": "UNCLASSIFIED", "NAME": "HAYWOOD COMMUNITY COLLEGE", "AREA": "828", "PHONE": "627-2821", "ADDRESS": "185 FREEDLANDER DRIVE", "ADDRESS2": "", "CITY": "CLYDE", "STATE": "NC", "ZIP": "28721", "ZIPP4": "9441", "COUNTY": "HAYWOOD", "FIPS": "37087", "DIRECTIONS": ".13 MILES SOUTHEAST OF JONES COVE ROAD ON THE EAST SIDE OF FREEDLANDER DRIVE", "EMERGTITLE": "", "EMERGPHONE": "", "EMERGEXT": "", "CONTDATE": "2007\/07\/11", "CONTHOW": "PHONE", "GEODATE": "2007\/07\/11", "GEOHOW": "MANUAL", "NAICSCODE": "611210", "NAICSDESCR": "COMMUNITY COLLEGES", "GEOLINKID": "102593023", "X": -82.928867, "Y": 35.526015, "ST_VENDOR": "NAVTEQ", "ST_VERSION": "2006Q4", "GEOPREC": "BLOCKFACE", "PHONELOC": "YES", "QC_QA": "TGS", "DEGREE": "ASSOCIATE'S DEGREE", "ENROLL": 2023 }, "geometry": { "type": "Point", "coordinates": [ 253386.793274, 204064.301936 ] } }
,
{ "type": "Feature", "properties": { "ID": "10274260", "METLNKID": "", "FEATTYPE": "POINT", "SECCLASS": "UNCLASSIFIED", "NAME": "PAMLICO COMMUNITY COLLEGE", "AREA": "252", "PHONE": "249-1851", "ADDRESS": "5049 STATE HIGHWAY 306 SOUTH", "ADDRESS2": "", "CITY": "GRANTSBORO", "STATE": "NC", "ZIP": "28529", "ZIPP4": "", "COUNTY": "PAMLICO", "FIPS": "37137", "DIRECTIONS": "EAST SIDE OF STATE HWY 306, 5 MILES SOUTH OF THE INTERSECTION OF STATE HWY 306 AND STATE HIGHWAY 55", "EMERGTITLE": "", "EMERGPHONE": "", "EMERGEXT": "", "CONTDATE": "2007\/07\/10", "CONTHOW": "PHONE", "GEODATE": "2007\/07\/10", "GEOHOW": "MANUAL", "NAICSCODE": "611210", "NAICSDESCR": "COMMUNITY COLLEGES", "GEOLINKID": "109898019", "X": -76.833800, "Y": 35.068517, "ST_VENDOR": "NAVTEQ", "ST_VERSION": "2006Q4", "GEOPREC": "ONENTITY", "PHONELOC": "YES", "QC_QA": "TGS", "DEGREE": "ASSOCIATE'S DEGREE", "ENROLL": 378 }, "geometry": { "type": "Point", "coordinates": [ 807144.786203, 148418.456434 ] } }
,
{ "type": "Feature", "properties": { "ID": "10271832", "METLNKID": "", "FEATTYPE": "POINT", "SECCLASS": "UNCLASSIFIED", "NAME": "WESTERN CAROLINA UNIVERSITY", "AREA": "828", "PHONE": "227-7211", "ADDRESS": "CENTENNIAL DRIVE", "ADDRESS2": "102 CAMP BUILDING - ADMISSIONS", "CITY": "CULLOWHEE", "STATE": "NC", "ZIP": "28723", "ZIPP4": "", "COUNTY": "JACKSON", "FIPS": "37099", "DIRECTIONS": "ON THE NORTHEAST CORNER OF NORTON ROAD AND CENTENNIAL DRIVE", "EMERGTITLE": "", "EMERGPHONE": "", "EMERGEXT": "", "CONTDATE": "2007\/07\/11", "CONTHOW": "PHONE", "GEODATE": "2007\/07\/11", "GEOHOW": "MANUAL", "NAICSCODE": "611310", "NAICSDESCR": "UNIVERSITIES", "GEOLINKID": "109897431", "X": -83.183822, "Y": 35.310176, "ST_VENDOR": "NAVTEQ", "ST_VERSION": "2006Q4", "GEOPREC": "ONENTITY", "PHONELOC": "YES", "QC_QA": "TGS", "DEGREE": "DOCTOR'S DEGREE", "ENROLL": 8665 }, "geometry": { "type": "Point", "coordinates": [ 229275.540540, 181086.126368 ] } }
,
{ "type": "Feature", "properties": { "ID": "10274235", "METLNKID": "", "FEATTYPE": "POINT", "SECCLASS": "UNCLASSIFIED", "NAME": "HIGH POINT UNIVERSITY", "AREA": "336", "PHONE": "841-9000", "ADDRESS": "833 MONTLIEU AVENUE", "ADDRESS2": "", "CITY": "HIGH POINT", "STATE": "NC", "ZIP": "27262", "ZIPP4": "4221", "COUNTY": "GUILFORD", "FIPS": "37081", "DIRECTIONS": "ON THE NORTHWEST SIDE OF MONTLIEU AVENUE BETWEEN BARBEE AVENUE AND NORTH COLLEGE DRIVE", "EMERGTITLE": "", "EMERGPHONE": "", "EMERGEXT": "", "CONTDATE": "2007\/07\/10", "CONTHOW": "PHONE", "GEODATE": "2007\/07\/10", "GEOHOW": "MANUAL", "NAICSCODE": "611310", "NAICSDESCR": "UNIVERSITIES", "GEOLINKID": "17134278", "X": -79.992653, "Y": 35.969800, "ST_VENDOR": "NAVTEQ", "ST_VERSION": "2006Q4", "GEOPREC": "BLOCKFACE", "PHONELOC": "YES", "QC_QA": "TGS", "DEGREE": "MASTER'S DEGREE", "ENROLL": 2753 }, "geometry": { "type": "Point", "coordinates": [ 520071.758754, 246697.568047 ] } }
,
{ "type": "Feature", "properties": { "ID": "10274266", "METLNKID": "", "FEATTYPE": "POINT", "SECCLASS": "UNCLASSIFIED", "NAME": "RANDOLPH COMMUNITY COLLEGE", "AREA": "336", "PHONE": "633-0200", "ADDRESS": "629 INDUSTRIAL PARK AVENUE", "ADDRESS2": "", "CITY": "ASHEBORO", "STATE": "NC", "ZIP": "27205", "ZIPP4": "7333", "COUNTY": "RANDOLPH", "FIPS": "37151", "DIRECTIONS": "SOUTH SIDE OF INDUSTRIAL PARK AVE, 0.38 MILES NORTH AND THEN EAST OF THE INTERSECTION OF INDUSTRIAL PARK AVE AND MCDOWELL ROAD", "EMERGTITLE": "", "EMERGPHONE": "", "EMERGEXT": "", "CONTDATE": "2007\/07\/11", "CONTHOW": "PHONE", "GEODATE": "2007\/07\/11", "GEOHOW": "MANUAL", "NAICSCODE": "611210", "NAICSDESCR": "COMMUNITY COLLEGES", "GEOLINKID": "102899225", "X": -79.828151, "Y": 35.673718, "ST_VENDOR": "NAVTEQ", "ST_VERSION": "2006Q4", "GEOPREC": "BLOCKFACE", "PHONELOC": "NO", "QC_QA": "TGS", "DEGREE": "ASSOCIATE'S DEGREE", "ENROLL": 1988 }, "geometry": { "type": "Point", "coordinates": [ 534634.092049, 213713.127399 ] } }
,
{ "type": "Feature", "properties": { "ID": "10274282", "METLNKID": "", "FEATTYPE": "POINT", "SECCLASS": "UNCLASSIFIED", "NAME": "VANCE - GRANVILLE COMMUNITY COLLEGE", "AREA": "252", "PHONE": "492-2061", "ADDRESS": "200 COMMUNITY COLLEGE ROAD", "ADDRESS2": "STATE HIGHWAY 1126", "CITY": "HENDERSON", "STATE": "NC", "ZIP": "27537", "ZIPP4": "", "COUNTY": "VANCE", "FIPS": "37181", "DIRECTIONS": "FROM INTERSTATE 85 TAKE EXIT 9 TO STATE HWY 1126. TRAVEL NORTHWEST 0.09 MILES ON STATE HWY 1126 TO COLLEGE ENTRANCE TO THE EAST AT STATE HIGHWAY 1260", "EMERGTITLE": "", "EMERGPHONE": "", "EMERGEXT": "", "CONTDATE": "2007\/07\/11", "CONTHOW": "PHONE", "GEODATE": "2007\/07\/11", "GEOHOW": "MANUAL", "NAICSCODE": "611210", "NAICSDESCR": "COMMUNITY COLLEGES", "GEOLINKID": "102930048", "X": -78.490496, "Y": 36.323104, "ST_VENDOR": "NAVTEQ", "ST_VERSION": "2006Q4", "GEOPREC": "BLOCKFACE", "PHONELOC": "YES", "QC_QA": "TGS", "DEGREE": "ASSOCIATE'S DEGREE", "ENROLL": 4057 }, "geometry": { "type": "Point", "coordinates": [ 655353.788315, 285570.403803 ] } }
,
{ "type": "Feature", "properties": { "ID": "10274198", "METLNKID": "", "FEATTYPE": "POINT", "SECCLASS": "UNCLASSIFIED", "NAME": "ART INSTITUTE OF CHARLOTTE", "AREA": "704", "PHONE": "357-8020", "ADDRESS": "2110 WATER RIDGE PARKWAY", "ADDRESS2": "", "CITY": "CHARLOTTE", "STATE": "NC", "ZIP": "28217", "ZIPP4": "4536", "COUNTY": "MECKLENBURG", "FIPS": "37119", "DIRECTIONS": ".14 MILES WEST OF EDGE LAKE DRIVE ON THE SOUTHWEST SIDE OF WATER RIDGE PARKWAY", "EMERGTITLE": "", "EMERGPHONE": "", "EMERGEXT": "", "CONTDATE": "2007\/07\/10", "CONTHOW": "PHONE", "GEODATE": "2007\/07\/10", "GEOHOW": "MANUAL", "NAICSCODE": "61151", "NAICSDESCR": "TECHNICAL AND TRADE SCHOOLS", "GEOLINKID": "28233675", "X": -80.927498, "Y": 35.181778, "ST_VENDOR": "NAVTEQ", "ST_VERSION": "2006Q4", "GEOPREC": "ONENTITY", "PHONELOC": "YES", "QC_QA": "TGS", "DEGREE": "BACHELOR'S DEGREE", "ENROLL": 820 }, "geometry": { "type": "Point", "coordinates": [ 434066.769570, 160531.199280 ] } }
,
{ "type": "Feature", "properties": { "ID": "10274200", "METLNKID": "", "FEATTYPE": "POINT", "SECCLASS": "UNCLASSIFIED", "NAME": "APPALACHIAN STATE UNIVERSITY", "AREA": "828", "PHONE": "262-2000", "ADDRESS": "APPALACHIAN STATE UNIVERSITY", "ADDRESS2": "", "CITY": "BOONE", "STATE": "NC", "ZIP": "28608", "ZIPP4": "", "COUNTY": "WATAUGA", "FIPS": "37189", "DIRECTIONS": "SOUTHWEST QUADRANT OF THE INTERSECTION OF HOWARD STREET AND HARDIN STREET", "EMERGTITLE": "", "EMERGPHONE": "", "EMERGEXT": "", "CONTDATE": "2007\/07\/11", "CONTHOW": "PHONE", "GEODATE": "2007\/07\/11", "GEOHOW": "MANUAL", "NAICSCODE": "611310", "NAICSDESCR": "UNIVERSITIES", "GEOLINKID": "102417827", "X": -81.675205, "Y": 36.215270, "ST_VENDOR": "NAVTEQ", "ST_VERSION": "2006Q4", "GEOPREC": "BLOCKFACE", "PHONELOC": "YES", "QC_QA": "TGS", "DEGREE": "DOCTOR'S DEGREE", "ENROLL": 14653 }, "geometry": { "type": "Point", "coordinates": [ 369077.929956, 276728.017491 ] } }
,
{ "type": "Feature", "properties": { "ID": "10274199", "METLNKID": "", "FEATTYPE": "POINT", "SECCLASS": "UNCLASSIFIED", "NAME": "SOUTH PIEDMONT COMMUNITY COLLEGE", "AREA": "704", "PHONE": "272-7635", "ADDRESS": "129 LEDBETTER STREET", "ADDRESS2": "", "CITY": "POLKTON", "STATE": "NC", "ZIP": "28135", "ZIPP4": "", "COUNTY": "ANSON", "FIPS": "37007", "DIRECTIONS": "LOC ON THE EAST SIDE OF LEDBETTER ST, .14 MI SOUTHEAST OF HORNE TOWN RD", "EMERGTITLE": "", "EMERGPHONE": "", "EMERGEXT": "", "CONTDATE": "2007\/07\/10", "CONTHOW": "PHONE", "GEODATE": "2007\/07\/10", "GEOHOW": "MANUAL", "NAICSCODE": "611210", "NAICSDESCR": "COMMUNITY COLLEGES", "GEOLINKID": "124744720", "X": -80.211847, "Y": 35.000732, "ST_VENDOR": "NAVTEQ", "ST_VERSION": "2006Q4", "GEOPREC": "BLOCKFACE", "PHONELOC": "YES", "QC_QA": "TGS", "DEGREE": "ASSOCIATE'S DEGREE", "ENROLL": 1967 }, "geometry": { "type": "Point", "coordinates": [ 498990.659351, 139418.977982 ] } }
,
{ "type": "Feature", "properties": { "ID": "10271700", "METLNKID": "", "FEATTYPE": "POINT", "SECCLASS": "UNCLASSIFIED", "NAME": "MAYLAND COMMUNITY COLLEGE", "AREA": "828", "PHONE": "765-7351", "ADDRESS": "200 MAYLAND DRIVE", "ADDRESS2": "", "CITY": "SPRUCE PINE", "STATE": "NC", "ZIP": "28777", "ZIPP4": "", "COUNTY": "AVERY", "FIPS": "37011", "DIRECTIONS": "END OF\/ NORTHEAST SIDE OF MAYLAND DRIVE, 0.18 MILES NORTH OF THE INTERSECTION OF MAYLAND DRIVE AND S US-19E", "EMERGTITLE": "", "EMERGPHONE": "", "EMERGEXT": "", "CONTDATE": "2007\/07\/10", "CONTHOW": "PHONE", "GEODATE": "2007\/07\/10", "GEOHOW": "MANUAL", "NAICSCODE": "611210", "NAICSDESCR": "COMMUNITY COLLEGES", "GEOLINKID": "102941250", "X": -82.016811, "Y": 35.934526, "ST_VENDOR": "NAVTEQ", "ST_VERSION": "2006Q4", "GEOPREC": "ONENTITY", "PHONELOC": "", "QC_QA": "TGS", "DEGREE": "ASSOCIATE'S DEGREE", "ENROLL": 1502 }, "geometry": { "type": "Point", "coordinates": [ 337427.051220, 246472.224397 ] } }
,
{ "type": "Feature", "properties": { "ID": "10271628", "METLNKID": "", "FEATTYPE": "POINT", "SECCLASS": "UNCLASSIFIED", "NAME": "BRUNSWICK COMMUNITY COLLEGE", "AREA": "910", "PHONE": "755-7300", "ADDRESS": "50 COLLEGE ROAD NORTHEAST", "ADDRESS2": "", "CITY": "BOLIVIA", "STATE": "NC", "ZIP": "28422", "ZIPP4": "", "COUNTY": "BRUNSWICK", "FIPS": "37019", "DIRECTIONS": "ON THE NORTH SIDE OF COLLEGE RD NE, .19 MI NORTHWEST OF OLD OCEAN HWY E.", "EMERGTITLE": "", "EMERGPHONE": "", "EMERGEXT": "", "CONTDATE": "2007\/07\/09", "CONTHOW": "PHONE", "GEODATE": "2007\/07\/09", "GEOHOW": "MANUAL", "NAICSCODE": "611210", "NAICSDESCR": "COMMUNITY COLLEGES", "GEOLINKID": "125475710", "X": -78.230400, "Y": 34.038390, "ST_VENDOR": "NAVTEQ", "ST_VERSION": "2006Q4", "GEOPREC": "BLOCKFACE", "PHONELOC": "YES", "QC_QA": "TGS", "DEGREE": "ASSOCIATE'S DEGREE", "ENROLL": 1033 }, "geometry": { "type": "Point", "coordinates": [ 680674.598631, 32268.725848 ] } }
,
{ "type": "Feature", "properties": { "ID": "10274209", "METLNKID": "", "FEATTYPE": "POINT", "SECCLASS": "UNCLASSIFIED", "NAME": "CABARRUS COLLEGE OF HEALTH SCIENCES", "AREA": "704", "PHONE": "783-1555", "ADDRESS": "401 MEDICAL PARK DRIVE", "ADDRESS2": "", "CITY": "CONCORD", "STATE": "NC", "ZIP": "28025", "ZIPP4": "", "COUNTY": "CABARRUS", "FIPS": "37025", "DIRECTIONS": "LOC ON THE SOUTH SIDE OF MEDICAL PARK DR, .07 MI WEST OF LAKE CONCORD RD NE.", "EMERGTITLE": "", "EMERGPHONE": "", "EMERGEXT": "", "CONTDATE": "2007\/07\/10", "CONTHOW": "PHONE", "GEODATE": "2007\/07\/10", "GEOHOW": "MANUAL", "NAICSCODE": "611310", "NAICSDESCR": "COLLEGES (EXCEPT JUNIOR COLLEGES)", "GEOLINKID": "28203297", "X": -80.599939, "Y": 35.439163, "ST_VENDOR": "NAVTEQ", "ST_VERSION": "2006Q4", "GEOPREC": "BLOCKFACE", "PHONELOC": "YES", "QC_QA": "TGS", "DEGREE": "BACHELOR'S DEGREE", "ENROLL": 315 }, "geometry": { "type": "Point", "coordinates": [ 464354.397393, 188549.870800 ] } }
,
{ "type": "Feature", "properties": { "ID": "10271759", "METLNKID": "", "FEATTYPE": "POINT", "SECCLASS": "UNCLASSIFIED", "NAME": "SOUTHEASTERN COMMUNITY COLLEGE", "AREA": "910", "PHONE": "642-7141", "ADDRESS": "4564 CHADBOURN HIGHWAY", "ADDRESS2": "", "CITY": "WHITEVILLE", "STATE": "NC", "ZIP": "28472", "ZIPP4": "5423", "COUNTY": "COLUMBUS", "FIPS": "37047", "DIRECTIONS": "LOC ON THE NW SIDE OF CHADBOURN HWY, 1.33 MI WEST OF UNION VALLEY RD.", "EMERGTITLE": "", "EMERGPHONE": "", "EMERGEXT": "", "CONTDATE": "2007\/07\/09", "CONTHOW": "PHONE", "GEODATE": "2007\/07\/09", "GEOHOW": "MANUAL", "NAICSCODE": "611210", "NAICSDESCR": "COMMUNITY COLLEGES", "GEOLINKID": "125049677", "X": -78.783106, "Y": 34.329693, "ST_VENDOR": "NAVTEQ", "ST_VERSION": "2006Q4", "GEOPREC": "BLOCKFACE", "PHONELOC": "YES", "QC_QA": "TGS", "DEGREE": "ASSOCIATE'S DEGREE", "ENROLL": 1814 }, "geometry": { "type": "Point", "coordinates": [ 629561.166151, 64329.427915 ] } }
,
{ "type": "Feature", "properties": { "ID": "10274214", "METLNKID": "", "FEATTYPE": "POINT", "SECCLASS": "UNCLASSIFIED", "NAME": "CATAWBA VALLEY COMMUNITY COLLEGE", "AREA": "828", "PHONE": "327-7000", "ADDRESS": "2550 UNITED STATES HIGHWAY 70 SOUTHEAST", "ADDRESS2": "", "CITY": "HICKORY", "STATE": "NC", "ZIP": "28602", "ZIPP4": "", "COUNTY": "CATAWBA", "FIPS": "37035", "DIRECTIONS": "LOC ON THE SOUTH OF US HWY 70 SE, .15 OF A MILE E OF 25TH ST BLVD SE", "EMERGTITLE": "", "EMERGPHONE": "", "EMERGEXT": "", "CONTDATE": "2007\/07\/10", "CONTHOW": "PHONE", "GEODATE": "2007\/07\/10", "GEOHOW": "MANUAL", "NAICSCODE": "611210", "NAICSDESCR": "COMMUNITY COLLEGES", "GEOLINKID": "102363584", "X": -81.286611, "Y": 35.700072, "ST_VENDOR": "NAVTEQ", "ST_VERSION": "2006Q4", "GEOPREC": "BLOCKFACE", "PHONELOC": "YES", "QC_QA": "TGS", "DEGREE": "ASSOCIATE'S DEGREE", "ENROLL": 4930 }, "geometry": { "type": "Point", "coordinates": [ 402692.483522, 218707.382218 ] } }
,
{ "type": "Feature", "properties": { "ID": "10274286", "METLNKID": "", "FEATTYPE": "POINT", "SECCLASS": "UNCLASSIFIED", "NAME": "WAYNE COMMUNITY COLLEGE", "AREA": "919", "PHONE": "735-5151", "ADDRESS": "3000 WAYNE MEMORIAL DRIVE", "ADDRESS2": "", "CITY": "GOLDSBORO", "STATE": "NC", "ZIP": "27534", "ZIPP4": "8212", "COUNTY": "WAYNE", "FIPS": "37191", "DIRECTIONS": "SOUTHEAST SIDE OF WAYNE MEMORIAL DRIVE, APPROX 0.31 MILES SOUTHWEST OF THE INTERSECTION OF WAYNE MEMORIAL DRIVE AND E NEW HOPE RD NE", "EMERGTITLE": "", "EMERGPHONE": "", "EMERGEXT": "", "CONTDATE": "2007\/07\/11", "CONTHOW": "PHONE", "GEODATE": "2007\/07\/11", "GEOHOW": "MANUAL", "NAICSCODE": "611210", "NAICSDESCR": "COMMUNITY COLLEGES", "GEOLINKID": "124763999", "X": -77.946804, "Y": 35.405190, "ST_VENDOR": "NAVTEQ", "ST_VERSION": "2006Q4", "GEOPREC": "BLOCKFACE", "PHONELOC": "YES", "QC_QA": "TGS", "DEGREE": "ASSOCIATE'S DEGREE", "ENROLL": 3166 }, "geometry": { "type": "Point", "coordinates": [ 705255.536751, 184118.004792 ] } }
,
{ "type": "Feature", "properties": { "ID": "10274265", "METLNKID": "", "FEATTYPE": "POINT", "SECCLASS": "UNCLASSIFIED", "NAME": "QUEENS UNIVERSITY OF CHARLOTTE", "AREA": "704", "PHONE": "337-2200", "ADDRESS": "1900 SELWYN AVENUE", "ADDRESS2": "", "CITY": "CHARLOTTE", "STATE": "NC", "ZIP": "28274", "ZIPP4": "0001", "COUNTY": "MECKLENBURG", "FIPS": "37119", "DIRECTIONS": ".04 MILES SOUTHWEST OF RADCLIFFE AVENUE ON THE NORTHWEST SIDE OF SELWYN AVENUE", "EMERGTITLE": "", "EMERGPHONE": "", "EMERGEXT": "", "CONTDATE": "2007\/07\/10", "CONTHOW": "PHONE", "GEODATE": "2007\/07\/10", "GEOHOW": "MANUAL", "NAICSCODE": "611310", "NAICSDESCR": "UNIVERSITIES", "GEOLINKID": "127868876", "X": -80.831056, "Y": 35.188921, "ST_VENDOR": "NAVTEQ", "ST_VERSION": "2006Q4", "GEOPREC": "BLOCKFACE", "PHONELOC": "YES", "QC_QA": "TGS", "DEGREE": "MASTER'S DEGREE", "ENROLL": 2113 }, "geometry": { "type": "Point", "coordinates": [ 442863.128278, 161157.131117 ] } }
,
{ "type": "Feature", "properties": { "ID": "10274262", "METLNKID": "", "FEATTYPE": "POINT", "SECCLASS": "UNCLASSIFIED", "NAME": "UNIVERSITY OF NORTH CAROLINA AT PEMBROKE", "AREA": "910", "PHONE": "521-6000", "ADDRESS": "1 UNIVERSITY DRIVE", "ADDRESS2": "", "CITY": "PEMBROKE", "STATE": "NC", "ZIP": "28372", "ZIPP4": "8699", "COUNTY": "ROBESON", "FIPS": "37155", "DIRECTIONS": "SOUTHWEST QUADRANT OF THE INTERSECTION OF N ODUM DR AND UNIVERSITY DR", "EMERGTITLE": "", "EMERGPHONE": "", "EMERGEXT": "", "CONTDATE": "2007\/07\/11", "CONTHOW": "PHONE", "GEODATE": "2007\/07\/11", "GEOHOW": "MANUAL", "NAICSCODE": "611310", "NAICSDESCR": "UNIVERSITIES", "GEOLINKID": "102748431", "X": -79.199496, "Y": 34.689521, "ST_VENDOR": "NAVTEQ", "ST_VERSION": "2006Q4", "GEOPREC": "BLOCKFACE", "PHONELOC": "YES", "QC_QA": "TGS", "DEGREE": "MASTER'S DEGREE", "ENROLL": 5632 }, "geometry": { "type": "Point", "coordinates": [ 591322.561378, 104240.625341 ] } }
,
{ "type": "Feature", "properties": { "ID": "10274202", "METLNKID": "", "FEATTYPE": "POINT", "SECCLASS": "UNCLASSIFIED", "NAME": "BARTON COLLEGE", "AREA": "252", "PHONE": "399-6300", "ADDRESS": "704 COLLEGE STREET", "ADDRESS2": "", "CITY": "WILSON", "STATE": "NC", "ZIP": "27893", "ZIPP4": "3104", "COUNTY": "WILSON", "FIPS": "37195", "DIRECTIONS": "SOUTHWEST SIDE OF COLLEGE STREET NE BETWEEN ATLANTIC CHRISTIAN COL DR NE AND ROUNDTREE STREET NE", "EMERGTITLE": "", "EMERGPHONE": "", "EMERGEXT": "", "CONTDATE": "2007\/07\/11", "CONTHOW": "PHONE", "GEODATE": "2007\/07\/11", "GEOHOW": "MANUAL", "NAICSCODE": "611310", "NAICSDESCR": "COLLEGES (EXCEPT JUNIOR COLLEGES)", "GEOLINKID": "102526895", "X": -77.911445, "Y": 35.736946, "ST_VENDOR": "NAVTEQ", "ST_VERSION": "2006Q4", "GEOPREC": "BLOCKFACE", "PHONELOC": "YES", "QC_QA": "TGS", "DEGREE": "POST BACCALAUREATE CERTIFICATE", "ENROLL": 1189 }, "geometry": { "type": "Point", "coordinates": [ 708063.221854, 220955.051817 ] } }
,
{ "type": "Feature", "properties": { "ID": "10275706", "METLNKID": "", "FEATTYPE": "POINT", "SECCLASS": "UNCLASSIFIED", "NAME": "CAROLINAS COLLEGE OF HEALTH SCIENCES", "AREA": "704", "PHONE": "355-5043", "ADDRESS": "1200 BLYTHE BOULEVARD", "ADDRESS2": "", "CITY": "CHARLOTTE", "STATE": "NC", "ZIP": "28203", "ZIPP4": "5816", "COUNTY": "MECKLENBURG", "FIPS": "37119", "DIRECTIONS": ".22 MILES SOUTH OF MEDICAL CENTER DRIVE ON THE WEST SIDE OF BLYTHE BOULEVARD", "EMERGTITLE": "", "EMERGPHONE": "", "EMERGEXT": "", "CONTDATE": "2007\/07\/10", "CONTHOW": "PHONE", "GEODATE": "2007\/07\/10", "GEOHOW": "MANUAL", "NAICSCODE": "611310", "NAICSDESCR": "COLLEGES (EXCEPT JUNIOR COLLEGES)", "GEOLINKID": "28231837", "X": -80.838589, "Y": 35.199924, "ST_VENDOR": "NAVTEQ", "ST_VERSION": "2006Q4", "GEOPREC": "ONENTITY", "PHONELOC": "YES", "QC_QA": "TGS", "DEGREE": "ASSOCIATE'S DEGREE", "ENROLL": 467 }, "geometry": { "type": "Point", "coordinates": [ 442199.852092, 162390.187357 ] } }
,
{ "type": "Feature", "properties": { "ID": "10272061", "METLNKID": "", "FEATTYPE": "POINT", "SECCLASS": "UNCLASSIFIED", "NAME": "DAVIDSON COLLEGE", "AREA": "704", "PHONE": "894-2000", "ADDRESS": "102 NORTH MAIN STREET", "ADDRESS2": "", "CITY": "DAVIDSON", "STATE": "NC", "ZIP": "28036", "ZIPP4": "9402", "COUNTY": "MECKLENBURG", "FIPS": "37119", "DIRECTIONS": "ON THE EAST SIDE OF N MAIN ST, .15 MI SOUTH OF GRIFFITH ST.", "EMERGTITLE": "", "EMERGPHONE": "", "EMERGEXT": "", "CONTDATE": "2007\/07\/10", "CONTHOW": "PHONE", "GEODATE": "2007\/07\/10", "GEOHOW": "MANUAL", "NAICSCODE": "611310", "NAICSDESCR": "COLLEGES (EXCEPT JUNIOR COLLEGES)", "GEOLINKID": "40501948", "X": -80.847915, "Y": 35.499677, "ST_VENDOR": "NAVTEQ", "ST_VERSION": "2006Q4", "GEOPREC": "BLOCKFACE", "PHONELOC": "YES", "QC_QA": "TGS", "DEGREE": "BACHELOR'S DEGREE", "ENROLL": 1683 }, "geometry": { "type": "Point", "coordinates": [ 441969.840098, 195652.724629 ] } }
,
{ "type": "Feature", "properties": { "ID": "10274222", "METLNKID": "", "FEATTYPE": "POINT", "SECCLASS": "UNCLASSIFIED", "NAME": "DURHAM TECHNICAL COMMUNITY COLLEGE", "AREA": "919", "PHONE": "686-3300", "ADDRESS": "1637 EAST LAWSON STREET", "ADDRESS2": "", "CITY": "DURHAM", "STATE": "NC", "ZIP": "27703", "ZIPP4": "5023", "COUNTY": "DURHAM", "FIPS": "37063", "DIRECTIONS": "ON THE NORTH SIDE OF E LAWSON ST, .27 MI WEST OF S BRIGGS AVE.", "EMERGTITLE": "", "EMERGPHONE": "", "EMERGEXT": "", "CONTDATE": "2007\/07\/10", "CONTHOW": "PHONE", "GEODATE": "2007\/07\/10", "GEOHOW": "MANUAL", "NAICSCODE": "61151", "NAICSDESCR": "TECHNICAL AND TRADE SCHOOLS", "GEOLINKID": "135925492", "X": -78.880970, "Y": 35.974603, "ST_VENDOR": "NAVTEQ", "ST_VERSION": "2006Q4", "GEOPREC": "BLOCKFACE", "PHONELOC": "YES", "QC_QA": "TGS", "DEGREE": "ASSOCIATE'S DEGREE", "ENROLL": 5495 }, "geometry": { "type": "Point", "coordinates": [ 620336.289864, 246789.279282 ] } }
,
{ "type": "Feature", "properties": { "ID": "10274197", "METLNKID": "", "FEATTYPE": "POINT", "SECCLASS": "UNCLASSIFIED", "NAME": "COLLEGE OF THE ALBEMARLE", "AREA": "252", "PHONE": "335-0821", "ADDRESS": "1208 NORTH ROAD STREET", "ADDRESS2": "", "CITY": "ELIZABETH CITY", "STATE": "NC", "ZIP": "27909", "ZIPP4": "3336", "COUNTY": "PASQUOTANK", "FIPS": "37139", "DIRECTIONS": "EAST QUADRANT OF THE INTERSECTION OF N ROAD STREET AND STATE HIGHWAY 1383", "EMERGTITLE": "", "EMERGPHONE": "", "EMERGEXT": "", "CONTDATE": "2007\/07\/10", "CONTHOW": "PHONE", "GEODATE": "2007\/07\/10", "GEOHOW": "MANUAL", "NAICSCODE": "611310", "NAICSDESCR": "COLLEGES (EXCEPT JUNIOR COLLEGES)", "GEOLINKID": "123631675", "X": -76.222042, "Y": 36.324872, "ST_VENDOR": "NAVTEQ", "ST_VERSION": "2006Q4", "GEOPREC": "BLOCKFACE", "PHONELOC": "YES", "QC_QA": "TGS", "DEGREE": "AT LEAST 2, BUT LESS THAN 4 ACADEMIC YRS", "ENROLL": 2175 }, "geometry": { "type": "Point", "coordinates": [ 859020.227283, 289139.287541 ] } }
,
{ "type": "Feature", "properties": { "ID": "10272141", "METLNKID": "", "FEATTYPE": "POINT", "SECCLASS": "UNCLASSIFIED", "NAME": "DUKE UNIVERSITY", "AREA": "919", "PHONE": "684-2813", "ADDRESS": "2138 CAMPUS DRIVE", "ADDRESS2": "UNDERGRADUATE ADMISSIONS", "CITY": "DURHAM", "STATE": "NC", "ZIP": "27708", "ZIPP4": "", "COUNTY": "DURHAM", "FIPS": "37063", "DIRECTIONS": "LOC ON THE NORTH SIDE OF CAMPUS DR, .11 MI WEST OF ANDERSON ST.", "EMERGTITLE": "", "EMERGPHONE": "", "EMERGEXT": "", "CONTDATE": "2007\/07\/10", "CONTHOW": "PHONE", "GEODATE": "2007\/07\/10", "GEOHOW": "MANUAL", "NAICSCODE": "611310", "NAICSDESCR": "UNIVERSITIES", "GEOLINKID": "17086509", "X": -78.932338, "Y": 35.999847, "ST_VENDOR": "NAVTEQ", "ST_VERSION": "2006Q4", "GEOPREC": "ONENTITY", "PHONELOC": "YES", "QC_QA": "TGS", "DEGREE": "DOCTOR'S DEGREE", "ENROLL": 14075 }, "geometry": { "type": "Point", "coordinates": [ 615701.618785, 249585.843201 ] } }
,
{ "type": "Feature", "properties": { "ID": "10274211", "METLNKID": "", "FEATTYPE": "POINT", "SECCLASS": "UNCLASSIFIED", "NAME": "CAMPBELL UNIVERSITY", "AREA": "910", "PHONE": "893-1200", "ADDRESS": "421 LESLIE CAMPBELL AVENUE", "ADDRESS2": "", "CITY": "BUIES CREEK", "STATE": "NC", "ZIP": "27506", "ZIPP4": "", "COUNTY": "HARNETT", "FIPS": "37085", "DIRECTIONS": ".06 MILES NORTH OF LESLIE CAMPBELL AVENUE ON THE EAST SIDE OF MAIN STREET", "EMERGTITLE": "", "EMERGPHONE": "", "EMERGEXT": "", "CONTDATE": "2007\/07\/10", "CONTHOW": "PHONE", "GEODATE": "2007\/07\/10", "GEOHOW": "MANUAL", "NAICSCODE": "611310", "NAICSDESCR": "UNIVERSITIES", "GEOLINKID": "102412068", "X": -78.737633, "Y": 35.407900, "ST_VENDOR": "NAVTEQ", "ST_VERSION": "2006Q4", "GEOPREC": "ONENTITY", "PHONELOC": "YES", "QC_QA": "TGS", "DEGREE": "MASTER'S DEGREE", "ENROLL": 6669 }, "geometry": { "type": "Point", "coordinates": [ 633429.753109, 183942.614957 ] } }
,
{ "type": "Feature", "properties": { "ID": "10274263", "METLNKID": "", "FEATTYPE": "POINT", "SECCLASS": "UNCLASSIFIED", "NAME": "PFEIFFER UNIVERSITY MISENHEIMER CAMPUS", "AREA": "704", "PHONE": "463-1360", "ADDRESS": "48380 UNITED STATES HIGHWAY 52 NORTH", "ADDRESS2": "", "CITY": "MISENHEIMER", "STATE": "NC", "ZIP": "28109", "ZIPP4": "", "COUNTY": "STANLY", "FIPS": "37167", "DIRECTIONS": "NORTHEAST AND SOUTHWEST SIDE OF US HWY 52, 0.40 MILE EAST OF THE INTERSECTION OF US HWY 52 AND STATE HWY 1455.", "EMERGTITLE": "", "EMERGPHONE": "", "EMERGEXT": "", "CONTDATE": "2007\/07\/11", "CONTHOW": "PHONE", "GEODATE": "2007\/07\/11", "GEOHOW": "MANUAL", "NAICSCODE": "611310", "NAICSDESCR": "UNIVERSITIES", "GEOLINKID": "102933004", "X": -80.281349, "Y": 35.483048, "ST_VENDOR": "NAVTEQ", "ST_VERSION": "2006Q4", "GEOPREC": "BLOCKFACE", "PHONELOC": "YES", "QC_QA": "TGS", "DEGREE": "MASTER'S DEGREE", "ENROLL": 2150 }, "geometry": { "type": "Point", "coordinates": [ 493337.911083, 192998.045310 ] } }
,
{ "type": "Feature", "properties": { "ID": "10274257", "METLNKID": "", "FEATTYPE": "POINT", "SECCLASS": "UNCLASSIFIED", "NAME": "NORTH CAROLINA STATE UNIVERSITY AT RALEIGH", "AREA": "919", "PHONE": "515-2011", "ADDRESS": "2200 HILLSBOROUGH STREET", "ADDRESS2": "", "CITY": "RALEIGH", "STATE": "NC", "ZIP": "27695", "ZIPP4": "0001", "COUNTY": "WAKE", "FIPS": "37183", "DIRECTIONS": "SOUTH SIDE OF HILLSBOROUGH STREET APPROX 0.19 MILES NORTHWEST OF THE INTERSECTION OF HILLSBOROUGH STREET AND OBERLIN RD", "EMERGTITLE": "", "EMERGPHONE": "", "EMERGEXT": "", "CONTDATE": "2007\/07\/11", "CONTHOW": "PHONE", "GEODATE": "2007\/07\/11", "GEOHOW": "MANUAL", "NAICSCODE": "611310", "NAICSDESCR": "UNIVERSITIES", "GEOLINKID": "17109632", "X": -78.664483, "Y": 35.786472, "ST_VENDOR": "NAVTEQ", "ST_VERSION": "2006Q4", "GEOPREC": "BLOCKFACE", "PHONELOC": "YES", "QC_QA": "TGS", "DEGREE": "DOCTOR'S DEGREE", "ENROLL": 30148 }, "geometry": { "type": "Point", "coordinates": [ 639931.433261, 225961.105735 ] } }
,
{ "type": "Feature", "properties": { "ID": "10274291", "METLNKID": "", "FEATTYPE": "POINT", "SECCLASS": "UNCLASSIFIED", "NAME": "WINSTON-SALEM STATE UNIVERSITY", "AREA": "336", "PHONE": "750-2000", "ADDRESS": "601 MARTIN LUTHER KING JUNIOR DRIVE", "ADDRESS2": "", "CITY": "WINSTON SALEM", "STATE": "NC", "ZIP": "27110", "ZIPP4": "0003", "COUNTY": "FORSYTH", "FIPS": "37067", "DIRECTIONS": ".28 MILES NORTHWEST OF REYNOLDS PARK ROAD ON THE NORTHEAST SIDE OF MARTIN LUTHER KING JUNIOR DRIVE", "EMERGTITLE": "", "EMERGPHONE": "", "EMERGEXT": "", "CONTDATE": "2007\/07\/10", "CONTHOW": "PHONE", "GEODATE": "2007\/07\/10", "GEOHOW": "MANUAL", "NAICSCODE": "611310", "NAICSDESCR": "UNIVERSITIES", "GEOLINKID": "17057053", "X": -80.226311, "Y": 36.088778, "ST_VENDOR": "NAVTEQ", "ST_VERSION": "2006Q4", "GEOPREC": "BLOCKFACE", "PHONELOC": "YES", "QC_QA": "TGS", "DEGREE": "MASTER'S DEGREE", "ENROLL": 5566 }, "geometry": { "type": "Point", "coordinates": [ 499161.669026, 260133.313941 ] } }
,
{ "type": "Feature", "properties": { "ID": "10274229", "METLNKID": "", "FEATTYPE": "POINT", "SECCLASS": "UNCLASSIFIED", "NAME": "GASTON COLLEGE", "AREA": "704", "PHONE": "922-6200", "ADDRESS": "201 UNITED STATES HIGHWAY 321 SOUTH", "ADDRESS2": "", "CITY": "DALLAS", "STATE": "NC", "ZIP": "28034", "ZIPP4": "", "COUNTY": "GASTON", "FIPS": "37071", "DIRECTIONS": "ON THE SOUTHEAST SIDE OF THE INTERSECTION OF GASTON COLLEGE ROAD AND RHODES PERIMETER DRIVE", "EMERGTITLE": "", "EMERGPHONE": "", "EMERGEXT": "", "CONTDATE": "2007\/07\/10", "CONTHOW": "PHONE", "GEODATE": "2007\/08\/02", "GEOHOW": "MANUAL", "NAICSCODE": "611310", "NAICSDESCR": "COLLEGES (EXCEPT JUNIOR COLLEGES)", "GEOLINKID": "28210488", "X": -81.191095, "Y": 35.313010, "ST_VENDOR": "NAVTEQ", "ST_VERSION": "2006Q4", "GEOPREC": "ONENTITY", "PHONELOC": "YES", "QC_QA": "TGS", "DEGREE": "AT LEAST 2, BUT LESS THAN 4 ACADEMIC YRS", "ENROLL": 5033 }, "geometry": { "type": "Point", "coordinates": [ 410386.276875, 175583.374805 ] } }
,
{ "type": "Feature", "properties": { "ID": "10274280", "METLNKID": "", "FEATTYPE": "POINT", "SECCLASS": "UNCLASSIFIED", "NAME": "ALAMANCE COMMUNITY COLLEGE", "AREA": "336", "PHONE": "578-2002", "ADDRESS": "1247 JIMMIE KERR ROAD", "ADDRESS2": "", "CITY": "GRAHAM", "STATE": "NC", "ZIP": "27253", "ZIPP4": "", "COUNTY": "ALAMANCE", "FIPS": "37001", "DIRECTIONS": "ON THE NW SIDE OF JIMMIE KERR RD, .27 MI SOUTH OF I-85 AND I-40.", "EMERGTITLE": "", "EMERGPHONE": "", "EMERGEXT": "", "CONTDATE": "2007\/07\/10", "CONTHOW": "PHONE", "GEODATE": "2007\/07\/10", "GEOHOW": "MANUAL", "NAICSCODE": "611210", "NAICSDESCR": "COMMUNITY COLLEGES", "GEOLINKID": "125437845", "X": -79.356520, "Y": 36.065623, "ST_VENDOR": "NAVTEQ", "ST_VERSION": "2006Q4", "GEOPREC": "BLOCKFACE", "PHONELOC": "YES", "QC_QA": "TGS", "DEGREE": "ASSOCIATE'S DEGREE", "ENROLL": 4576 }, "geometry": { "type": "Point", "coordinates": [ 577483.636447, 256939.645331 ] } }
,
{ "type": "Feature", "properties": { "ID": "10274203", "METLNKID": "", "FEATTYPE": "POINT", "SECCLASS": "UNCLASSIFIED", "NAME": "BEAUFORT COUNTY COMMUNITY COLLEGE", "AREA": "252", "PHONE": "940-6202", "ADDRESS": "5337 UNITED STATES HIGHWAY264 EAST", "ADDRESS2": "", "CITY": "WASHINGTON", "STATE": "NC", "ZIP": "27889", "ZIPP4": "", "COUNTY": "BEAUFORT", "FIPS": "37013", "DIRECTIONS": "ON THE NORTH SIDE OF US-264, 1.06 MI WEST OF NC-32.", "EMERGTITLE": "", "EMERGPHONE": "", "EMERGEXT": "", "CONTDATE": "2007\/07\/09", "CONTHOW": "PHONE", "GEODATE": "2007\/07\/09", "GEOHOW": "MANUAL", "NAICSCODE": "611210", "NAICSDESCR": "COMMUNITY COLLEGES", "GEOLINKID": "124764628", "X": -76.967029, "Y": 35.532480, "ST_VENDOR": "NAVTEQ", "ST_VERSION": "2006Q4", "GEOPREC": "BLOCKFACE", "PHONELOC": "YES", "QC_QA": "TGS", "DEGREE": "ASSOCIATE'S DEGREE", "ENROLL": 1461 }, "geometry": { "type": "Point", "coordinates": [ 793942.979315, 199619.240459 ] } }
,
{ "type": "Feature", "properties": { "ID": "10274239", "METLNKID": "", "FEATTYPE": "POINT", "SECCLASS": "UNCLASSIFIED", "NAME": "LEES-MCRAE COLLEGE", "AREA": "828", "PHONE": "898-5241", "ADDRESS": "191 MAIN STREET WEST", "ADDRESS2": "", "CITY": "BANNER ELK", "STATE": "NC", "ZIP": "28604", "ZIPP4": "7713", "COUNTY": "AVERY", "FIPS": "37011", "DIRECTIONS": "SOUTH SIDE OF MAIN STREET WEST, APPROX 0.10 MILES SOUTHWEST OF THE INTERSECTION OF MAIN STREET WEST AND SHAWNEEHAW AVE", "EMERGTITLE": "", "EMERGPHONE": "", "EMERGEXT": "", "CONTDATE": "2007\/07\/11", "CONTHOW": "PHONE", "GEODATE": "2007\/07\/11", "GEOHOW": "MANUAL", "NAICSCODE": "611310", "NAICSDESCR": "COLLEGES (EXCEPT JUNIOR COLLEGES)", "GEOLINKID": "124764389", "X": -81.873319, "Y": 36.162639, "ST_VENDOR": "NAVTEQ", "ST_VERSION": "2006Q4", "GEOPREC": "BLOCKFACE", "PHONELOC": "YES", "QC_QA": "TGS", "DEGREE": "BACHELOR'S DEGREE", "ENROLL": 883 }, "geometry": { "type": "Point", "coordinates": [ 351101.587089, 271388.091651 ] } }
,
{ "type": "Feature", "properties": { "ID": "10274251", "METLNKID": "", "FEATTYPE": "POINT", "SECCLASS": "UNCLASSIFIED", "NAME": "UNIVERSITY OF NORTH CAROLINA - ASHEVILLE", "AREA": "828", "PHONE": "251-6600", "ADDRESS": "1 UNIVERSITY HEIGHTS", "ADDRESS2": "", "CITY": "ASHEVILLE", "STATE": "NC", "ZIP": "28804", "ZIPP4": "3251", "COUNTY": "BUNCOMBE", "FIPS": "37021", "DIRECTIONS": "FROM W T WEAVER BLVD, TURN NORTH ON TO UNIVERSITY HTS FOR .27 MI. CAMPUS IS LOC ON THE NW SIDE OF UNIVERSITY HTS.", "EMERGTITLE": "", "EMERGPHONE": "", "EMERGEXT": "", "CONTDATE": "2007\/07\/09", "CONTHOW": "PHONE", "GEODATE": "2007\/07\/09", "GEOHOW": "MANUAL", "NAICSCODE": "611310", "NAICSDESCR": "UNIVERSITIES", "GEOLINKID": "125464315", "X": -82.564195, "Y": 35.617073, "ST_VENDOR": "NAVTEQ", "ST_VERSION": "2006Q4", "GEOPREC": "BLOCKFACE", "PHONELOC": "YES", "QC_QA": "TGS", "DEGREE": "MASTER'S DEGREE", "ENROLL": 3499 }, "geometry": { "type": "Point", "coordinates": [ 286797.838167, 212911.835829 ] } }
,
{ "type": "Feature", "properties": { "ID": "10274221", "METLNKID": "", "FEATTYPE": "POINT", "SECCLASS": "UNCLASSIFIED", "NAME": "DAVIDSON COUNTY COMMUNITY COLLEGE", "AREA": "336", "PHONE": "249-8186", "ADDRESS": "297 DAVIDSON COUNTY COMMUNITY COLLEGE ROAD", "ADDRESS2": "", "CITY": "THOMASVILLE", "STATE": "NC", "ZIP": "27360", "ZIPP4": "", "COUNTY": "DAVIDSON", "FIPS": "37057", "DIRECTIONS": "FROM I-85 BL, GO .31 MI NORTH ON OLD GREENSBORO RD, THEN EAST .14 MI ON DCCC RD. LOC ON THE SOUTH SIDE OF DCCC RD.", "EMERGTITLE": "", "EMERGPHONE": "", "EMERGEXT": "", "CONTDATE": "2007\/07\/10", "CONTHOW": "PHONE", "GEODATE": "2007\/07\/10", "GEOHOW": "MANUAL", "NAICSCODE": "611210", "NAICSDESCR": "COMMUNITY COLLEGES", "GEOLINKID": "125452596", "X": -80.181720, "Y": 35.865902, "ST_VENDOR": "NAVTEQ", "ST_VERSION": "2006Q4", "GEOPREC": "BLOCKFACE", "PHONELOC": "YES", "QC_QA": "TGS", "DEGREE": "ASSOCIATE'S DEGREE", "ENROLL": 3123 }, "geometry": { "type": "Point", "coordinates": [ 502882.861366, 235357.586126 ] } }
,
{ "type": "Feature", "properties": { "ID": "10275874", "METLNKID": "", "FEATTYPE": "POINT", "SECCLASS": "UNCLASSIFIED", "NAME": "DEVRY UNIVERSITY - NORTH CAROLINA", "AREA": "704", "PHONE": "362-2345", "ADDRESS": "4521 SHARON ROAD", "ADDRESS2": "WALL STREET BUILDING, SUITE 145", "CITY": "CHARLOTTE", "STATE": "NC", "ZIP": "28211", "ZIPP4": "", "COUNTY": "MECKLENBURG", "FIPS": "37119", "DIRECTIONS": "ON THE SOUTHEAST SIDE OF THE INTERSECTION OF SOUTH PARK DRIVE AND SHARON ROAD", "EMERGTITLE": "", "EMERGPHONE": "", "EMERGEXT": "", "CONTDATE": "2007\/07\/11", "CONTHOW": "PHONE", "GEODATE": "2007\/07\/11", "GEOHOW": "MANUAL", "NAICSCODE": "611310", "NAICSDESCR": "UNIVERSITIES", "GEOLINKID": "28236875", "X": -80.828349, "Y": 35.151045, "ST_VENDOR": "NAVTEQ", "ST_VERSION": "2006Q4", "GEOPREC": "BLOCKFACE", "PHONELOC": "YES", "QC_QA": "TGS", "DEGREE": "MASTER'S DEGREE", "ENROLL": 193 }, "geometry": { "type": "Point", "coordinates": [ 443032.302885, 156951.772332 ] } }
,
{ "type": "Feature", "properties": { "ID": "10274276", "METLNKID": "", "FEATTYPE": "POINT", "SECCLASS": "UNCLASSIFIED", "NAME": "SAINT ANDREWS PRESBYTERIAN COLLEGE", "AREA": "910", "PHONE": "277-5000", "ADDRESS": "1700 DOGWOOD MILE STREET", "ADDRESS2": "", "CITY": "LAURINBURG", "STATE": "NC", "ZIP": "28352", "ZIPP4": "5521", "COUNTY": "SCOTLAND", "FIPS": "37165", "DIRECTIONS": "SOUTH SIDE OF DOGWOOD MILE STREET BETWEEN MAGNOLIA DR AND ELM AVENUE", "EMERGTITLE": "", "EMERGPHONE": "", "EMERGEXT": "", "CONTDATE": "2007\/07\/11", "CONTHOW": "PHONE", "GEODATE": "2007\/07\/11", "GEOHOW": "MANUAL", "NAICSCODE": "611310", "NAICSDESCR": "COLLEGES (EXCEPT JUNIOR COLLEGES)", "GEOLINKID": "125074556", "X": -79.480724, "Y": 34.749563, "ST_VENDOR": "NAVTEQ", "ST_VERSION": "2006Q4", "GEOPREC": "BLOCKFACE", "PHONELOC": "YES", "QC_QA": "TGS", "DEGREE": "BACHELOR'S DEGREE", "ENROLL": 781 }, "geometry": { "type": "Point", "coordinates": [ 565587.658752, 110989.017325 ] } }
,
{ "type": "Feature", "properties": { "ID": "10271699", "METLNKID": "", "FEATTYPE": "POINT", "SECCLASS": "UNCLASSIFIED", "NAME": "JOHNSON C SMITH UNIVERSITY", "AREA": "704", "PHONE": "378-1000", "ADDRESS": "100 BEATTIES FORD ROAD", "ADDRESS2": "", "CITY": "CHARLOTTE", "STATE": "NC", "ZIP": "28216", "ZIPP4": "5302", "COUNTY": "MECKLENBURG", "FIPS": "37119", "DIRECTIONS": "ON THE EAST SIDE OF THE INTERSECTION OF ROZZELLES FERRY ROAD AND BEATTIES FORD ROAD", "EMERGTITLE": "", "EMERGPHONE": "", "EMERGEXT": "", "CONTDATE": "2007\/07\/10", "CONTHOW": "PHONE", "GEODATE": "2007\/07\/10", "GEOHOW": "MANUAL", "NAICSCODE": "611310", "NAICSDESCR": "UNIVERSITIES", "GEOLINKID": "135924057", "X": -80.858343, "Y": 35.241934, "ST_VENDOR": "NAVTEQ", "ST_VERSION": "2006Q4", "GEOPREC": "BLOCKFACE", "PHONELOC": "YES", "QC_QA": "TGS", "DEGREE": "BACHELOR'S DEGREE", "ENROLL": 1404 }, "geometry": { "type": "Point", "coordinates": [ 440488.764762, 167083.101763 ] } }
,
{ "type": "Feature", "properties": { "ID": "10272163", "METLNKID": "", "FEATTYPE": "POINT", "SECCLASS": "UNCLASSIFIED", "NAME": "JOHNSON AND WALES UNIVERSITY - CHARLOTTE", "AREA": "980", "PHONE": "598-1000", "ADDRESS": "801 WEST TRADE STREET", "ADDRESS2": "ACADEMIC CENTER", "CITY": "CHARLOTTE", "STATE": "NC", "ZIP": "28202", "ZIPP4": "1122", "COUNTY": "MECKLENBURG", "FIPS": "37119", "DIRECTIONS": ".04 MILES NORTHWEST OF WEST 4TH STREET ON THE NORTHEAST SIDE OF TRADE - 4TH CONNECTOR STREET", "EMERGTITLE": "", "EMERGPHONE": "", "EMERGEXT": "", "CONTDATE": "2007\/07\/10", "CONTHOW": "PHONE", "GEODATE": "2007\/07\/10", "GEOHOW": "MANUAL", "NAICSCODE": "611519", "NAICSDESCR": "CULINARY ARTS SCHOOLS", "GEOLINKID": "28226370", "X": -80.851833, "Y": 35.233043, "ST_VENDOR": "NAVTEQ", "ST_VERSION": "2006Q4", "GEOPREC": "ONENTITY", "PHONELOC": "YES", "QC_QA": "TGS", "DEGREE": "BACHELOR'S DEGREE", "ENROLL": 2156 }, "geometry": { "type": "Point", "coordinates": [ 441062.692181, 166085.855721 ] } }
,
{ "type": "Feature", "properties": { "ID": "10274252", "METLNKID": "", "FEATTYPE": "POINT", "SECCLASS": "UNCLASSIFIED", "NAME": "UNIVERSITY OF NORTH CAROLINA AT CHAPEL HILL", "AREA": "919", "PHONE": "962-2211", "ADDRESS": "200 EAST CAMERON AVENUE", "ADDRESS2": "103 SOUTH BUILDING CAMPUS, BUILDING 9100", "CITY": "CHAPEL HILL", "STATE": "NC", "ZIP": "27514", "ZIPP4": "3601", "COUNTY": "ORANGE", "FIPS": "37135", "DIRECTIONS": "SOUTHEAST SIDE OF E CAMERON AVE BETWEEN RALEIGH STREET AND COLUMBIA STREET", "EMERGTITLE": "", "EMERGPHONE": "", "EMERGEXT": "", "CONTDATE": "2007\/07\/10", "CONTHOW": "PHONE", "GEODATE": "2007\/07\/27", "GEOHOW": "MANUAL", "NAICSCODE": "611310", "NAICSDESCR": "UNIVERSITIES", "GEOLINKID": "17134607", "X": -79.051096, "Y": 35.911691, "ST_VENDOR": "NAVTEQ", "ST_VERSION": "2006Q4", "GEOPREC": "ONENTITY", "PHONELOC": "YES", "QC_QA": "TGS", "DEGREE": "DOCTOR'S DEGREE", "ENROLL": 27276 }, "geometry": { "type": "Point", "coordinates": [ 604989.342360, 239803.778265 ] } }
,
{ "type": "Feature", "properties": { "ID": "10274289", "METLNKID": "", "FEATTYPE": "POINT", "SECCLASS": "UNCLASSIFIED", "NAME": "WILSON TECHNICAL COMMUNITY COLLEGE", "AREA": "252", "PHONE": "291-1195", "ADDRESS": "902 HERRING AVENUE", "ADDRESS2": "", "CITY": "WILSON", "STATE": "NC", "ZIP": "27893", "ZIPP4": "3310", "COUNTY": "WILSON", "FIPS": "37195", "DIRECTIONS": "SOUTHEAST SIDE OF HERRING AVE E BETWEEN SAMUEL STREET NORTHEAST AND WARD BOULEVARD", "EMERGTITLE": "", "EMERGPHONE": "", "EMERGEXT": "", "CONTDATE": "2007\/07\/11", "CONTHOW": "PHONE", "GEODATE": "2007\/07\/11", "GEOHOW": "MANUAL", "NAICSCODE": "61151", "NAICSDESCR": "TECHNICAL AND TRADE SCHOOLS", "GEOLINKID": "125337798", "X": -77.895812, "Y": 35.730384, "ST_VENDOR": "NAVTEQ", "ST_VERSION": "2006Q4", "GEOPREC": "BLOCKFACE", "PHONELOC": "YES", "QC_QA": "TGS", "DEGREE": "ASSOCIATE'S DEGREE", "ENROLL": 1925 }, "geometry": { "type": "Point", "coordinates": [ 709485.330192, 220242.675131 ] } }
,
{ "type": "Feature", "properties": { "ID": "10271568", "METLNKID": "", "FEATTYPE": "POINT", "SECCLASS": "UNCLASSIFIED", "NAME": "LENOIR-RHYNE COLLEGE", "AREA": "828", "PHONE": "328-1741", "ADDRESS": "625 7TH AVENUE NORTHEAST", "ADDRESS2": "", "CITY": "HICKORY", "STATE": "NC", "ZIP": "28601", "ZIPP4": "3984", "COUNTY": "CATAWBA", "FIPS": "37035", "DIRECTIONS": "ON THE NORTHEAST SIDE OF 7TH AVE NE, .17 MI NORTHWEST OF HIGHLAND AVE NE.", "EMERGTITLE": "", "EMERGPHONE": "", "EMERGEXT": "", "CONTDATE": "2007\/07\/09", "CONTHOW": "PHONE", "GEODATE": "2007\/07\/09", "GEOHOW": "MANUAL", "NAICSCODE": "611310", "NAICSDESCR": "COLLEGES (EXCEPT JUNIOR COLLEGES)", "GEOLINKID": "102537697", "X": -81.326628, "Y": 35.738408, "ST_VENDOR": "NAVTEQ", "ST_VERSION": "2006Q4", "GEOPREC": "BLOCKFACE", "PHONELOC": "YES", "QC_QA": "TGS", "DEGREE": "MASTER'S DEGREE", "ENROLL": 1561 }, "geometry": { "type": "Point", "coordinates": [ 399171.718130, 223043.373170 ] } }
,
{ "type": "Feature", "properties": { "ID": "10272002", "METLNKID": "", "FEATTYPE": "POINT", "SECCLASS": "UNCLASSIFIED", "NAME": "ELON UNIVERSITY", "AREA": "336", "PHONE": "278-2000", "ADDRESS": "301 WEST HAGGARD AVENUE", "ADDRESS2": "WELCOME CENTER", "CITY": "ELON", "STATE": "NC", "ZIP": "27244", "ZIPP4": "7664", "COUNTY": "ALAMANCE", "FIPS": "37001", "DIRECTIONS": "ON THE NORTH SIDE OF W HAGGARD AVE, .22 MI WEST OF N WILLIAMSON AVE.", "EMERGTITLE": "", "EMERGPHONE": "", "EMERGEXT": "", "CONTDATE": "2007\/07\/09", "CONTHOW": "PHONE", "GEODATE": "2007\/07\/09", "GEOHOW": "MANUAL", "NAICSCODE": "611310", "NAICSDESCR": "UNIVERSITIES", "GEOLINKID": "102415396", "X": -79.510652, "Y": 36.103041, "ST_VENDOR": "NAVTEQ", "ST_VERSION": "2006Q4", "GEOPREC": "BLOCKFACE", "PHONELOC": "YES", "QC_QA": "TGS", "DEGREE": "DOCTOR'S DEGREE", "ENROLL": 4956 }, "geometry": { "type": "Point", "coordinates": [ 563619.883517, 261152.072658 ] } }
,
{ "type": "Feature", "properties": { "ID": "10272139", "METLNKID": "", "FEATTYPE": "POINT", "SECCLASS": "UNCLASSIFIED", "NAME": "BARBER-SCOTIA COLLEGE", "AREA": "704", "PHONE": "789-2900", "ADDRESS": "145 CABARRUS AVENUE WEST", "ADDRESS2": "", "CITY": "CONCORD", "STATE": "NC", "ZIP": "28025", "ZIPP4": "5143", "COUNTY": "CABARRUS", "FIPS": "37025", "DIRECTIONS": "LOC ON THE SOUTHEAST SIDE OF CABARRUS AVE W, .08 MI NORTHEAST OF CROWELL DR SW.", "EMERGTITLE": "", "EMERGPHONE": "", "EMERGEXT": "", "CONTDATE": "2007\/07\/10", "CONTHOW": "PHONE", "GEODATE": "2007\/07\/10", "GEOHOW": "MANUAL", "NAICSCODE": "611310", "NAICSDESCR": "COLLEGES (EXCEPT JUNIOR COLLEGES)", "GEOLINKID": "28204613", "X": -80.585483, "Y": 35.407049, "ST_VENDOR": "NAVTEQ", "ST_VERSION": "2006Q4", "GEOPREC": "BLOCKFACE", "PHONELOC": "YES", "QC_QA": "TGS", "DEGREE": "BACHELOR'S DEGREE", "ENROLL": 0 }, "geometry": { "type": "Point", "coordinates": [ 465609.721287, 184966.682205 ] } }
,
{ "type": "Feature", "properties": { "ID": "10274278", "METLNKID": "", "FEATTYPE": "POINT", "SECCLASS": "UNCLASSIFIED", "NAME": "SOUTHEASTERN BAPTIST THEOLOGICAL SEMINARY", "AREA": "919", "PHONE": "556-3101", "ADDRESS": "120 SOUTH WINGATE STREET", "ADDRESS2": "", "CITY": "WAKE FOREST", "STATE": "NC", "ZIP": "27587", "ZIPP4": "2530", "COUNTY": "WAKE", "FIPS": "37183", "DIRECTIONS": "NORTHWEST SIDE OF N WINGATE STREET BETWEEN STADIUM DR AND DURHAM RD", "EMERGTITLE": "", "EMERGPHONE": "", "EMERGEXT": "", "CONTDATE": "2007\/07\/11", "CONTHOW": "PHONE", "GEODATE": "2007\/07\/11", "GEOHOW": "MANUAL", "NAICSCODE": "611310", "NAICSDESCR": "THEOLOGICAL SEMINARIES OFFERING BACCALAUREATE OR GRADUATE DEGREES", "GEOLINKID": "17088756", "X": -78.514323, "Y": 35.980824, "ST_VENDOR": "NAVTEQ", "ST_VERSION": "2006Q4", "GEOPREC": "BLOCKFACE", "PHONELOC": "YES", "QC_QA": "TGS", "DEGREE": "DOCTOR'S DEGREE", "ENROLL": 0 }, "geometry": { "type": "Point", "coordinates": [ 653400.067884, 247580.180163 ] } }
,
{ "type": "Feature", "properties": { "ID": "10274274", "METLNKID": "", "FEATTYPE": "POINT", "SECCLASS": "UNCLASSIFIED", "NAME": "SAMPSON COMMUNITY COLLEGE", "AREA": "910", "PHONE": "592-8081", "ADDRESS": "1801 SUNSET AVENUE", "ADDRESS2": "HIGHWAY 24 WEST", "CITY": "CLINTON", "STATE": "NC", "ZIP": "28328", "ZIPP4": "", "COUNTY": "SAMPSON", "FIPS": "37163", "DIRECTIONS": "SOUTH SIDE OF SUNSET AVE 0.19 MILES WEST OF THE INTERSECTION OF SUNSET AVE AND AIRPORT RD", "EMERGTITLE": "", "EMERGPHONE": "", "EMERGEXT": "", "CONTDATE": "2007\/07\/11", "CONTHOW": "PHONE", "GEODATE": "2007\/07\/11", "GEOHOW": "MANUAL", "NAICSCODE": "611210", "NAICSDESCR": "COMMUNITY COLLEGES", "GEOLINKID": "102387417", "X": -78.359783, "Y": 34.991568, "ST_VENDOR": "NAVTEQ", "ST_VERSION": "2006Q4", "GEOPREC": "BLOCKFACE", "PHONELOC": "YES", "QC_QA": "TGS", "DEGREE": "ASSOCIATE'S DEGREE", "ENROLL": 1452 }, "geometry": { "type": "Point", "coordinates": [ 668044.179689, 137915.791125 ] } }
,
{ "type": "Feature", "properties": { "ID": "10274272", "METLNKID": "", "FEATTYPE": "POINT", "SECCLASS": "UNCLASSIFIED", "NAME": "ROWAN-CABARRUS COMMUNITY COLLEGE - NORTH CAMPUS", "AREA": "704", "PHONE": "637-0760", "ADDRESS": "1333 JAKE ALEXANDER BOULEVARD", "ADDRESS2": "", "CITY": "SALISBURY", "STATE": "NC", "ZIP": "28146", "ZIPP4": "8357", "COUNTY": "ROWAN", "FIPS": "37159", "DIRECTIONS": "SOUTH SIDE OF JAKE ALEXANDER BLVD S BETWEEN INTERSTATE 85 EXIT 75 AND OLD CONCORD RD", "EMERGTITLE": "", "EMERGPHONE": "", "EMERGEXT": "", "CONTDATE": "2007\/07\/11", "CONTHOW": "PHONE", "GEODATE": "2007\/07\/11", "GEOHOW": "MANUAL", "NAICSCODE": "611210", "NAICSDESCR": "COMMUNITY COLLEGES", "GEOLINKID": "102406339", "X": -80.476812, "Y": 35.641219, "ST_VENDOR": "NAVTEQ", "ST_VERSION": "2006Q4", "GEOPREC": "BLOCKFACE", "PHONELOC": "YES", "QC_QA": "TGS", "DEGREE": "ASSOCIATE'S DEGREE", "ENROLL": 5235 }, "geometry": { "type": "Point", "coordinates": [ 475864.774490, 210789.738315 ] } }
,
{ "type": "Feature", "properties": { "ID": "10274223", "METLNKID": "", "FEATTYPE": "POINT", "SECCLASS": "UNCLASSIFIED", "NAME": "EAST CAROLINA UNIVERSITY", "AREA": "252", "PHONE": "328-6131", "ADDRESS": "EAST 5TH STREET", "ADDRESS2": "", "CITY": "GREENVILLE", "STATE": "NC", "ZIP": "27858", "ZIPP4": "", "COUNTY": "PITT", "FIPS": "37147", "DIRECTIONS": "SOUTHEAST QUADRANT OF THE INTERSECTION OF E 5TH STREET AND READE CIRCLE", "EMERGTITLE": "", "EMERGPHONE": "", "EMERGEXT": "", "CONTDATE": "2007\/07\/10", "CONTHOW": "PHONE", "GEODATE": "2007\/07\/10", "GEOHOW": "MANUAL", "NAICSCODE": "611310", "NAICSDESCR": "UNIVERSITIES", "GEOLINKID": "125338371", "X": -77.370580, "Y": 35.610371, "ST_VENDOR": "NAVTEQ", "ST_VERSION": "2006Q4", "GEOPREC": "BLOCKFACE", "PHONELOC": "YES", "QC_QA": "TGS", "DEGREE": "DOCTOR'S DEGREE", "ENROLL": 23164 }, "geometry": { "type": "Point", "coordinates": [ 757212.427218, 207584.121698 ] } }
,
{ "type": "Feature", "properties": { "ID": "10271701", "METLNKID": "", "FEATTYPE": "POINT", "SECCLASS": "UNCLASSIFIED", "NAME": "PIEDMONT COMMUNITY COLLEGE", "AREA": "336", "PHONE": "599-1181", "ADDRESS": "1715 COLLEGE DRIVE", "ADDRESS2": "", "CITY": "ROXBORO", "STATE": "NC", "ZIP": "27573", "ZIPP4": "", "COUNTY": "PERSON", "FIPS": "37145", "DIRECTIONS": "NORTHWEST SIDE OF THE END OF COLLEGE DR, 0.50 MILES NORTH AND WEST OF THE INTERSECTION OF COLLEGE DR AND MEMORIAL DR", "EMERGTITLE": "", "EMERGPHONE": "", "EMERGEXT": "", "CONTDATE": "2007\/07\/10", "CONTHOW": "PHONE", "GEODATE": "2007\/07\/10", "GEOHOW": "MANUAL", "NAICSCODE": "611210", "NAICSDESCR": "COMMUNITY COLLEGES", "GEOLINKID": "102439087", "X": -78.979399, "Y": 36.431212, "ST_VENDOR": "NAVTEQ", "ST_VERSION": "2006Q4", "GEOPREC": "BLOCKFACE", "PHONELOC": "YES", "QC_QA": "TGS", "DEGREE": "AT LEAST 2, BUT LESS THAN 4 ACADEMIC YRS", "ENROLL": 2594 }, "geometry": { "type": "Point", "coordinates": [ 611448.670260, 297450.316630 ] } }
,
{ "type": "Feature", "properties": { "ID": "10274271", "METLNKID": "", "FEATTYPE": "POINT", "SECCLASS": "UNCLASSIFIED", "NAME": "ROCKINGHAM COMMUNITY COLLEGE", "AREA": "336", "PHONE": "342-4261", "ADDRESS": "215 WRENN MEMORIAL ROAD", "ADDRESS2": "ADMINISTRATION BUILDING", "CITY": "REIDSVILLE", "STATE": "NC", "ZIP": "27320", "ZIPP4": "", "COUNTY": "ROCKINGHAM", "FIPS": "37157", "DIRECTIONS": "ON THE SOUTH SIDE OF ROCKINGHAM COMMUNITY COLLEGE (ROAD), 0.25 MILE SOUTH OF NC-65.", "EMERGTITLE": "", "EMERGPHONE": "", "EMERGEXT": "", "CONTDATE": "2007\/07\/11", "CONTHOW": "PHONE", "GEODATE": "2007\/07\/30", "GEOHOW": "MANUAL", "NAICSCODE": "611210", "NAICSDESCR": "COMMUNITY COLLEGES", "GEOLINKID": "102443706", "X": -79.755493, "Y": 36.387692, "ST_VENDOR": "NAVTEQ", "ST_VERSION": "2006Q4", "GEOPREC": "ONENTITY", "PHONELOC": "YES", "QC_QA": "TGS", "DEGREE": "ASSOCIATE'S DEGREE", "ENROLL": 2055 }, "geometry": { "type": "Point", "coordinates": [ 541814.117855, 292878.375000 ] } }
,
{ "type": "Feature", "properties": { "ID": "10274244", "METLNKID": "", "FEATTYPE": "POINT", "SECCLASS": "UNCLASSIFIED", "NAME": "MCDOWELL TECHNICAL COMMUNITY COLLEGE", "AREA": "828", "PHONE": "652-6021", "ADDRESS": "54 COLLEGE DRIVE", "ADDRESS2": "", "CITY": "MARION", "STATE": "NC", "ZIP": "28752", "ZIPP4": "8728", "COUNTY": "MCDOWELL", "FIPS": "37111", "DIRECTIONS": ".06 MILES SOUTHWEST OF STATE HIGHWAY 226 SOUTH ON THE NORTHWEST SIDE OF COLLEGE DRIVE", "EMERGTITLE": "", "EMERGPHONE": "", "EMERGEXT": "", "CONTDATE": "2007\/07\/10", "CONTHOW": "PHONE", "GEODATE": "2007\/07\/10", "GEOHOW": "MANUAL", "NAICSCODE": "61151", "NAICSDESCR": "TECHNICAL AND TRADE SCHOOLS", "GEOLINKID": "102898476", "X": -81.961152, "Y": 35.656428, "ST_VENDOR": "NAVTEQ", "ST_VERSION": "2006Q4", "GEOPREC": "BLOCKFACE", "PHONELOC": "YES", "QC_QA": "TGS", "DEGREE": "ASSOCIATE'S DEGREE", "ENROLL": 1209 }, "geometry": { "type": "Point", "coordinates": [ 341526.790066, 215480.769088 ] } }
,
{ "type": "Feature", "properties": { "ID": "10274240", "METLNKID": "", "FEATTYPE": "POINT", "SECCLASS": "UNCLASSIFIED", "NAME": "LENOIR COMMUNITY COLLEGE", "AREA": "252", "PHONE": "527-6223", "ADDRESS": "231 STATE HIGHWAY 58 SOUTH", "ADDRESS2": "", "CITY": "KINSTON", "STATE": "NC", "ZIP": "28504", "ZIPP4": "", "COUNTY": "LENOIR", "FIPS": "37107", "DIRECTIONS": "ON THE WEST SIDE OF STATE HIGHWAY 58 BETWEEN SPRING HILL STREET AND SIMMONS ALY", "EMERGTITLE": "", "EMERGPHONE": "", "EMERGEXT": "", "CONTDATE": "2007\/07\/10", "CONTHOW": "PHONE", "GEODATE": "2007\/07\/10", "GEOHOW": "MANUAL", "NAICSCODE": "611210", "NAICSDESCR": "COMMUNITY COLLEGES", "GEOLINKID": "102366516", "X": -77.581772, "Y": 35.252302, "ST_VENDOR": "NAVTEQ", "ST_VERSION": "2006Q4", "GEOPREC": "BLOCKFACE", "PHONELOC": "YES", "QC_QA": "TGS", "DEGREE": "ASSOCIATE'S DEGREE", "ENROLL": 2579 }, "geometry": { "type": "Point", "coordinates": [ 738649.168570, 167572.128810 ] } }
,
{ "type": "Feature", "properties": { "ID": "10272063", "METLNKID": "", "FEATTYPE": "POINT", "SECCLASS": "UNCLASSIFIED", "NAME": "JOHNSTON COMMUNITY COLLEGE", "AREA": "919", "PHONE": "934-3051", "ADDRESS": "245 COLLEGE ROAD", "ADDRESS2": "", "CITY": "SMITHFIELD", "STATE": "NC", "ZIP": "27577", "ZIPP4": "4905", "COUNTY": "JOHNSTON", "FIPS": "37101", "DIRECTIONS": ".11 MILES SOUTHWEST OF EAST MARKET STREET ON THE SOUTHEAST SIDE OF COLLEGE ROAD", "EMERGTITLE": "", "EMERGPHONE": "", "EMERGEXT": "", "CONTDATE": "2007\/07\/11", "CONTHOW": "PHONE", "GEODATE": "2007\/07\/11", "GEOHOW": "MANUAL", "NAICSCODE": "611210", "NAICSDESCR": "COMMUNITY COLLEGES", "GEOLINKID": "127915867", "X": -78.331169, "Y": 35.503570, "ST_VENDOR": "NAVTEQ", "ST_VERSION": "2006Q4", "GEOPREC": "BLOCKFACE", "PHONELOC": "YES", "QC_QA": "TGS", "DEGREE": "ASSOCIATE'S DEGREE", "ENROLL": 4095 }, "geometry": { "type": "Point", "coordinates": [ 670273.545975, 194728.797404 ] } }
,
{ "type": "Feature", "properties": { "ID": "10274256", "METLNKID": "", "FEATTYPE": "POINT", "SECCLASS": "UNCLASSIFIED", "NAME": "NORTH CAROLINA SCHOOL OF THE ARTS", "AREA": "336", "PHONE": "770-3399", "ADDRESS": "1533 SOUTH MAIN STREET", "ADDRESS2": "", "CITY": "WINSTON SALEM", "STATE": "NC", "ZIP": "27127", "ZIPP4": "2738", "COUNTY": "FORSYTH", "FIPS": "37067", "DIRECTIONS": ".12 MILES SOUTH OF DOUNE STREET ON THE EAST SIDE OF SOUTH MAIN STREET", "EMERGTITLE": "", "EMERGPHONE": "", "EMERGEXT": "", "CONTDATE": "2007\/07\/10", "CONTHOW": "PHONE", "GEODATE": "2007\/07\/10", "GEOHOW": "MANUAL", "NAICSCODE": "611610", "NAICSDESCR": "FINE ARTS SCHOOLS (EXCEPT ACADEMIC)", "GEOLINKID": "17060217", "X": -80.239867, "Y": 36.076834, "ST_VENDOR": "NAVTEQ", "ST_VERSION": "2006Q4", "GEOPREC": "BLOCKFACE", "PHONELOC": "YES", "QC_QA": "TGS", "DEGREE": "POST-MASTER'S CERTIFICATE", "ENROLL": 829 }, "geometry": { "type": "Point", "coordinates": [ 497924.343404, 258823.282396 ] } }
,
{ "type": "Feature", "properties": { "ID": "10274232", "METLNKID": "", "FEATTYPE": "POINT", "SECCLASS": "UNCLASSIFIED", "NAME": "HALIFAX COMMUNITY COLLEGE", "AREA": "252", "PHONE": "536-4221", "ADDRESS": "100 COLLEGE DRIVE", "ADDRESS2": "", "CITY": "WELDON", "STATE": "NC", "ZIP": "27890", "ZIPP4": "", "COUNTY": "HALIFAX", "FIPS": "37083", "DIRECTIONS": ".17 MILES SOUTH OF ROANOKE RAPIDS ROAD ON THE SOUTHEAST SIDE OF COLLEGE DRIVE", "EMERGTITLE": "", "EMERGPHONE": "", "EMERGEXT": "", "CONTDATE": "2007\/07\/11", "CONTHOW": "PHONE", "GEODATE": "2007\/07\/11", "GEOHOW": "MANUAL", "NAICSCODE": "611210", "NAICSDESCR": "COMMUNITY COLLEGES", "GEOLINKID": "125101602", "X": -77.619386, "Y": 36.428520, "ST_VENDOR": "NAVTEQ", "ST_VERSION": "2006Q4", "GEOPREC": "BLOCKFACE", "PHONELOC": "YES", "QC_QA": "TGS", "DEGREE": "ASSOCIATE'S DEGREE", "ENROLL": 1484 }, "geometry": { "type": "Point", "coordinates": [ 733411.869246, 298012.278381 ] } }
,
{ "type": "Feature", "properties": { "ID": "10274254", "METLNKID": "", "FEATTYPE": "POINT", "SECCLASS": "UNCLASSIFIED", "NAME": "UNIVERSITY OF NORTH CAROLINA AT GREENSBORO", "AREA": "336", "PHONE": "334-5000", "ADDRESS": "1000 SPRING GARDEN STREET", "ADDRESS2": "", "CITY": "GREENSBORO", "STATE": "NC", "ZIP": "27412", "ZIPP4": "", "COUNTY": "GUILFORD", "FIPS": "37081", "DIRECTIONS": "ON THE NORTH SIDE OF SPRING GARDEN STREET BETWEEN FOREST STREET AND TATE STREET", "EMERGTITLE": "", "EMERGPHONE": "", "EMERGEXT": "", "CONTDATE": "2007\/07\/11", "CONTHOW": "PHONE", "GEODATE": "2007\/07\/26", "GEOHOW": "MANUAL", "NAICSCODE": "611310", "NAICSDESCR": "UNIVERSITIES", "GEOLINKID": "17133088", "X": -79.805849, "Y": 36.066787, "ST_VENDOR": "NAVTEQ", "ST_VERSION": "2006Q4", "GEOPREC": "BLOCKFACE", "PHONELOC": "YES", "QC_QA": "TGS", "DEGREE": "DOCTOR'S DEGREE", "ENROLL": 16147 }, "geometry": { "type": "Point", "coordinates": [ 537006.920722, 257305.829213 ] } }
,
{ "type": "Feature", "properties": { "ID": "10274253", "METLNKID": "", "FEATTYPE": "POINT", "SECCLASS": "UNCLASSIFIED", "NAME": "UNIVERSITY OF NORTH CAROLINA AT CHARLOTTE", "AREA": "704", "PHONE": "687-2000", "ADDRESS": "9201 UNIVERSITY CITY BOULEVARD", "ADDRESS2": "", "CITY": "CHARLOTTE", "STATE": "NC", "ZIP": "28223", "ZIPP4": "0001", "COUNTY": "MECKLENBURG", "FIPS": "37119", "DIRECTIONS": "ON THE NORTH SIDE OF THE INTERSECTION OF MARY ALEXANDER ROAD AND UNIVERSITY CITY BOULEVARD", "EMERGTITLE": "", "EMERGPHONE": "", "EMERGEXT": "", "CONTDATE": "2007\/07\/11", "CONTHOW": "PHONE", "GEODATE": "2007\/07\/11", "GEOHOW": "MANUAL", "NAICSCODE": "611310", "NAICSDESCR": "UNIVERSITIES", "GEOLINKID": "28212103", "X": -80.729108, "Y": 35.302977, "ST_VENDOR": "NAVTEQ", "ST_VERSION": "2006Q4", "GEOPREC": "BLOCKFACE", "PHONELOC": "YES", "QC_QA": "TGS", "DEGREE": "DOCTOR'S DEGREE", "ENROLL": 20772 }, "geometry": { "type": "Point", "coordinates": [ 452366.084331, 173641.100668 ] } }
,
{ "type": "Feature", "properties": { "ID": "10274281", "METLNKID": "", "FEATTYPE": "POINT", "SECCLASS": "UNCLASSIFIED", "NAME": "TRI-COUNTY COMMUNITY COLLEGE", "AREA": "828", "PHONE": "837-6810", "ADDRESS": "4600 EAST UNITED STATES HIGHWAY 64", "ADDRESS2": "", "CITY": "MURPHY", "STATE": "NC", "ZIP": "28906", "ZIPP4": "", "COUNTY": "CHEROKEE", "FIPS": "37039", "DIRECTIONS": "ON THE WEST SIDE OF US-64, .26 MI SOUTH OF NC-141.", "EMERGTITLE": "", "EMERGPHONE": "", "EMERGEXT": "", "CONTDATE": "2007\/07\/10", "CONTHOW": "PHONE", "GEODATE": "2007\/07\/10", "GEOHOW": "MANUAL", "NAICSCODE": "611210", "NAICSDESCR": "COMMUNITY COLLEGES", "GEOLINKID": "102937986", "X": -83.965029, "Y": 35.067795, "ST_VENDOR": "NAVTEQ", "ST_VERSION": "2006Q4", "GEOPREC": "ONENTITY", "PHONELOC": "YES", "QC_QA": "TGS", "DEGREE": "ASSOCIATE'S DEGREE", "ENROLL": 1119 }, "geometry": { "type": "Point", "coordinates": [ 156971.075587, 157504.620958 ] } }
,
{ "type": "Feature", "properties": { "ID": "10274236", "METLNKID": "", "FEATTYPE": "POINT", "SECCLASS": "UNCLASSIFIED", "NAME": "ISOTHERMAL COMMUNITY COLLEGE", "AREA": "828", "PHONE": "286-3636", "ADDRESS": "286 ISOTHERMAL COMMUNITY COLLEGE LOOP ROAD", "ADDRESS2": "", "CITY": "SPINDALE", "STATE": "NC", "ZIP": "28160", "ZIPP4": "", "COUNTY": "RUTHERFORD", "FIPS": "37161", "DIRECTIONS": "FROM THE INTERSECTION OF US HWY 74A BYPASS AND ICC DRIVE, TRAVEL 0.23 MILES SOUTH, WEST THEN SOUTH ON ICC DRIVE TO WHERE IT DEAD-ENDS INTO ICC LOOP RD, FACILITY IS TO THE SOUTH.", "EMERGTITLE": "", "EMERGPHONE": "", "EMERGEXT": "", "CONTDATE": "2007\/07\/11", "CONTHOW": "PHONE", "GEODATE": "2007\/07\/11", "GEOHOW": "MANUAL", "NAICSCODE": "611210", "NAICSDESCR": "COMMUNITY COLLEGES", "GEOLINKID": "102639157", "X": -81.913339, "Y": 35.337942, "ST_VENDOR": "NAVTEQ", "ST_VERSION": "2006Q4", "GEOPREC": "BLOCKFACE", "PHONELOC": "YES", "QC_QA": "TGS", "DEGREE": "ASSOCIATE'S DEGREE", "ENROLL": 2124 }, "geometry": { "type": "Point", "coordinates": [ 344817.363649, 180036.124541 ] } }
,
{ "type": "Feature", "properties": { "ID": "10271569", "METLNKID": "", "FEATTYPE": "POINT", "SECCLASS": "UNCLASSIFIED", "NAME": "NORTH CAROLINA AGRICULTURE AND TECHNICAL STATE UNIVERSITY", "AREA": "336", "PHONE": "334-7500", "ADDRESS": "1601 EAST MARKET STREET", "ADDRESS2": "", "CITY": "GREENSBORO", "STATE": "NC", "ZIP": "27411", "ZIPP4": "0001", "COUNTY": "GUILFORD", "FIPS": "37081", "DIRECTIONS": "ON THE NORTH SIDE OF EAST MARKET STREET BETWEEN NORTH LAUREL STREET AND NORTH BENBOW ROAD", "EMERGTITLE": "", "EMERGPHONE": "", "EMERGEXT": "", "CONTDATE": "2007\/07\/10", "CONTHOW": "PHONE", "GEODATE": "2007\/07\/10", "GEOHOW": "MANUAL", "NAICSCODE": "61151", "NAICSDESCR": "TECHNICAL AND TRADE SCHOOLS", "GEOLINKID": "125497719", "X": -79.773479, "Y": 36.072126, "ST_VENDOR": "NAVTEQ", "ST_VERSION": "2006Q4", "GEOPREC": "BLOCKFACE", "PHONELOC": "YES", "QC_QA": "TGS", "DEGREE": "DOCTOR'S DEGREE", "ENROLL": 11103 }, "geometry": { "type": "Point", "coordinates": [ 539927.487366, 257874.931753 ] } }

]
}
